,PARK_NO,PARK_NAME,ITEM_ID,ITEM_TYPE,DESCRIPTION,EASTING,NORTHING,ORIG_FID,LONGITUDE,LATITUDE,FIXED
0,D0373,BRISBANE CORSO PARK,179665,BBQ,,"501,887.37","6,957,612.16",141829095,153.0191091,-27.50515387,
1,D1821,NELSON PLACE PARK,161788,BBQ,,"500,234.35","6,965,788.85",141829095,153.00237109999998,-27.43133607,
2,D0338,JINDALEE BOAT RAMP PARK,181603,BBQ,,492890.13899999997,"6,954,802.743",141829095,152.927998,-27.53049975,
3,D0127,SEDGLEY PARK,182080,BBQ,,"500,490.5","6,966,115.71",141829095,153.0049627,-27.428385100000003,
4,D0338,JINDALEE BOAT RAMP PARK,181604,BBQ,,"492,989.27","6,954,746.996",141829095,152.9290016,-27.53100355,
5,D2672,BULIMBA RIVERSIDE PARK,181581,BBQ,,"505,302.09","6,963,274.09",141829095,153.05365749999999,-27.45402907,
6,D1120,STRETTON COMMUNITY PARK,132225,BBQ,,"506,768.11","6,945,154.77",141829095,153.06859519999998,-27.61760193,
7,D0316,DUNLOP PARK,179637,BBQ,,"498,122.87","6,953,022.84",141829095,152.9809874,-27.54658588,
8,D0801,BELDALE PARK,178988,BBQ,,"506,105.87","6,947,277",141829095,153.06187260000002,-27.59844601,
9,D0338,JINDALEE BOAT RAMP PARK,181602,BBQ,,"492,988.836","6,954,858.057",141829095,152.9289979,-27.530000899999997,
10,D0373,BRISBANE CORSO PARK,179664,BBQ,,"501,757.95","6,957,582.98",141829095,153.0177988,-27.50541748,
11,D0975,FRED FRANCIS PARK,161781,BBQ,,"504,350.42","6,978,413.55",141829095,153.04397240000003,-27.31735195,
12,D0696,A.R.C.HILL PARK,180445,BBQ,,"505,541.54","6,970,856.28",141829095,153.05604619999997,-27.38557573,
13,D0911,ANNA SMITH OBE QUOTA PARK,104238,BBQ,base no bbq,"510,593.87","6,957,526.72",141829095,153.1072608,-27.50588518,BASE ONLY
14,D0658,KIANAWAH ROAD PARK (NO.330),180003,BBQ,BBQ Electric,"514,475.85","6,962,895.11",141829095,153.1465008,-27.4573838,ELECTRIC
15,D0658,KIANAWAH ROAD PARK (NO.330),180002,BBQ,BBQ Electric,"514,476.69","6,962,877.79",141829095,153.1465096,-27.45754016,ELECTRIC
16,D0658,KIANAWAH ROAD PARK (NO.330),180001,BBQ,BBQ Electric,"514,481.29","6,962,858.79",141829095,153.14655630000001,-27.45771164,ELECTRIC
17,D1617,GREENWAYS ESPLANADE PARK,186913,BBQ,Wood Barbecue,"502,009.3391","6,943,027.118",141829095,153.02036830000003,-27.63682538,WOOD
18,D0127,SEDGLEY PARK,95854,BBQ,Wood Barbecue,"500,679.92","6,966,020.99",141829095,153.0068793,-27.42924015,WOOD
19,D0640,MEADOWLANDS PICNIC GROUND PARK,164808,BBQ,Wood Barbecue,"512,000.81","6,958,932.44",141829095,153.1214918,-27.49318273,WOOD
20,D0357,HANLON PARK,7509,BBQ,Wood Barbecue,"504,139.0098",6958317.316000001,141829095,153.04190400000002,-27.49878276,WOOD
21,D0371,PRINCESS STREET PARK (NOS.5-21),19662,BBQ,Wood Barbecue,"502,280.4789","6,958,070.346",141829095,153.0230884,-27.50101679,WOOD
22,D0467,ANZAC PARK,176760,BBQ,Wood Barbecue,"498,161.86","6,960,452.61",141829095,152.9813936,-27.47951047,WOOD
23,D1186,MARTINDALE STREET PARK,20329,BBQ,Wood Barbecue,"500,491.0977","6,972,020.866",141829095,153.0049664,-27.37507289,WOOD
24,D0119,C.B.MOTT PARK,22125,BBQ,Wood Barbecue,"505,818.83","6,956,445.32",141829095,153.0589197,-27.51567686,WOOD
25,D0984,ESPLANADE PARK,34841,BBQ,Wood Barbecue,499968.70700000005,"6,956,657.634",141829095,152.9996831,-27.51377259,WOOD
26,D0467,ANZAC PARK,176757,BBQ,Wood Barbecue,"498,199.96","6,960,462.76",141829095,152.9817793,-27.47941888,WOOD
27,D0467,ANZAC PARK,5926,BBQ,Wood Barbecue,"498,170.05","6,960,518.91",141829095,152.98147659999998,-27.47891192,WOOD
28,D0595,SHE-OAK PARK,16382,BBQ,Wood Barbecue,"512,673.09","6,959,856.87",141829095,153.1282881,-27.48483092,WOOD
29,D0035,COLMSLIE RESERVE,18676,BBQ,Wood Barbecue,"508,207.99","6,963,684.89",141829095,153.0830626,-27.45030594,WOOD
30,D1619,TORQUAY CRESCENT (NO.1695) PARK,27282,BBQ,Wood Barbecue,"513,765.04","6,961,481.11",141829095,153.1393233,-27.47015673,WOOD
31,D1874,KARAWATHA FOREST SOUTH,29244,BBQ,Wood Barbecue,"504,703.5615","6,942,359.254",141829095,153.04768180000002,-27.642847999999997,WOOD
32,D0927,JAMES FRENEY PARK,14250,BBQ,Wood Barbecue,"501,193.82","6,949,152.52",141829095,153.01209550000002,-27.58152739,WOOD
33,D0579,MARNHAM STREET PARK,4411,BBQ,Wood Barbecue,"502,597.9522",6947908.853999999,141829095,153.02632450000002,-27.59275303,WOOD
34,D0640,MEADOWLANDS PICNIC GROUND PARK,1366,BBQ,Wood Barbecue,"512,159.22","6,958,975.76",141829095,153.1230951,-27.49279023,WOOD
35,D0640,MEADOWLANDS PICNIC GROUND PARK,1368,BBQ,Wood Barbecue,"512,023.31","6,959,046.52",141829095,153.12171850000001,-27.49215262,WOOD
36,D1148,ALLARA PLACE PARK,20115,BBQ,Wood Barbecue,"509,531.7177",6948979.856000001,141829095,153.0965742,-27.58305312,WOOD
37,D0640,MEADOWLANDS PICNIC GROUND PARK,1367,BBQ,Wood Barbecue,"512,190.49","6,958,957.87",141829095,153.1234118,-27.49295146,WOOD
38,D1061,GEMSTONE CRESCENT PARK,16320,BBQ,Wood Barbecue,"501,652.2446","6,947,983.339",141829095,153.01674169999998,-27.59208208,WOOD
39,D0662,KENNA STREET PARK,41983,BBQ,Wood Barbecue,"500,778.74","6,971,595.65",141829095,153.0078756,-27.37891165,WOOD
40,D0382,ROWLINSON PARK,171749,BBQ,Wood Barbecue,"501,406.53","6,955,995.9",141829095,153.0142426,-27.51974594,WOOD
41,D0662,KENNA STREET PARK,14397,BBQ,Wood Barbecue,"500,778.83","6,971,595.55",141829095,153.00787649999998,-27.37891255,WOOD
42,D0500,EMERSON PARK,40855,BBQ,Wood Barbecue,"501,536.23","6,967,033.06",141829095,153.01554199999998,-27.42010244,WOOD
43,D1299,BENBEK CIRCUIT PARK,178521,BBQ,Wood Barbecue,"504,222.75","6,946,938.34",141829095,153.0427916,-27.60151056,WOOD
44,D0824,GRACEVILLE RIVERSIDE PARKLANDS,35008,BBQ,Wood Barbecue,"499,258.72","6,955,637.2",141829095,152.9924935,-27.52298478,WOOD
45,D0640,MEADOWLANDS PICNIC GROUND PARK,164805,BBQ,Wood Barbecue,"512,031.9","6,958,958.85",141829095,153.1218063,-27.49294403,WOOD
46,D0913,HOLDEN PARK,7494,BBQ,Wood Barbecue,"504,193.34","6,947,655.14",141829095,153.04249099999998,-27.59503951,WOOD
47,D1299,BENBEK CIRCUIT PARK,18496,BBQ,Wood Barbecue,"504,216.17","6,946,960.85",141829095,153.0427248,-27.60130737,WOOD
48,D0824,GRACEVILLE RIVERSIDE PARKLANDS,178543,BBQ,Wood Barbecue,"499,398.14","6,955,541.86",141829095,152.9939053,-27.52384557,WOOD
49,D0389,YERONGA MEMORIAL PARK,2479,BBQ,Wood Barbecue,"501,983.74","6,956,242.55",141829095,153.0200871,-27.51751848,WOOD
50,D0580,D.J.SHERRINGTON PARK,135152,BBQ,Wood Barbecue ON SANDSTONE BENCHTOP,"498,640.97","6,947,375.43",141829095,152.98622869999997,-27.59757051,WOOD
51,D0696,A.R.C.HILL PARK,121780,BBQ,concrete base with Wood Barbecue stove,"505,486.22","6,970,857.56",141829095,153.0554867,-27.385564399999996,WOOD
52,D2612,EUNGELLA TERRACE PARK,187066,BBQ,d a christie,"498,199.7838","6,943,317.669",141829095,152.9817519,-27.63420264,ELECTRIC
53,D2612,EUNGELLA TERRACE PARK,187117,BBQ,D A Christie electric,"497,923.6552",6943367.3889999995,141829095,152.978953,-27.63375339,ELECTRIC
54,D0463,KALINGA PARK,173826,BBQ,double electric,"505,057.0691","6,968,633.996",141829095,153.0511555,-27.40564057,ELECTRIC
55,D0463,KALINGA PARK,173829,BBQ,double electric,"505,076.3149","6,968,614.64",141829095,153.0513503,-27.40581525,ELECTRIC
56,D0463,KALINGA PARK,34152,BBQ,double electric,"505,099.2301",6968592.0139999995,141829095,153.05158219999998,-27.40601943,ELECTRIC
57,D0480,PERRIN PARK,181274,BBQ,Double electric,"499,213.73","6,959,142.09",141829095,152.9920402,-27.49134282,ELECTRIC
58,D0095,NEW FARM PARK,181060,BBQ,Double Plate,"505,125.88","6,961,389.48",141829095,153.0518822,-27.471044,ELECTRIC
59,D0095,NEW FARM PARK,181061,BBQ,Double Plate,"505,118","6,961,376.19",141829095,153.05180249999998,-27.47116401,ELECTRIC
60,D0119,C.B.MOTT PARK,118693,BBQ,electric,"505,700.47","6,956,414.72",141829095,153.05772140000002,-27.51595362,ELECTRIC
61,D0436,COORA STREET PARK,46877,BBQ,electric,"510,511","6,951,964",141829095,153.1064701,-27.55610548,ELECTRIC
62,D1893,STUMERS ROAD RESERVE,80331,BBQ,electric,"480,686.47","6,953,802.85",141829095,152.8043952,-27.53940772,ELECTRIC
63,D0663,BOOKER PLACE PARK,120036,BBQ,electric,"489,542.19","6,951,260.23",141829095,152.8940625,-27.56245942,ELECTRIC
64,D0160,WALTON BRIDGE RESERVE,50925,BBQ,Electric,"495,478.57","6,964,302.92",141829095,152.9542467,-27.4447436,ELECTRIC
65,D1338,LAKEWOOD AVENUE PARK,46629,BBQ,electric,"503,869.6593",6943281.4860000005,141829095,153.03922519999998,-27.63452495,ELECTRIC
66,D1263,KURILPA POINT PARK,86,BBQ,electric,"501,493.2977",6961533.6110000005,141829095,153.01511440000002,-27.46975163,ELECTRIC
67,D0707,TAYLOR BRIDGE RESERVE,181708,BBQ,electric,"497,319.4492",6957500.232000001,141829095,152.9728599,-27.50616301,ELECTRIC
68,D0064,GLINDEMANN PARK,13749,BBQ,electric,"506,883.94","6,955,233.16",141829095,153.0697116,-27.52661515,ELECTRIC
69,D2996,GREY GUMS PARK,126048,BBQ,Electric,"501,326","6,963,547",141829095,153.0134189,-27.45157493,ELECTRIC
70,D0530,LOTA CAMPING RESERVE,81243,BBQ,electric,"519,056.18","6,961,772.12",141829095,153.1928729,-27.46746563,ELECTRIC
71,D0204,GIBSON PARK,124035,BBQ,Electric,"501,467.02","6,967,972.28",141829095,153.01484069999998,-27.41162318,ELECTRIC
72,D0228,7TH BRIGADE PARK,182133,BBQ,Electric,"503,412.92","6,971,909.48",141829095,153.0345147,-27.37607432,ELECTRIC
73,D0616,RAVEN STREET RESERVE,36582,BBQ,electric,"500,480.3204","6,970,454.405",141829095,153.004858,-27.38921506,ELECTRIC
74,D0260,FIG TREE POCKET RIVERSIDE RESERVE,80048,BBQ,electric,"497,338.81","6,953,530.4",141829095,152.9730472,-27.54200237,ELECTRIC
75,D0616,RAVEN STREET RESERVE,36531,BBQ,electric,"500,491.2462",6970460.813999999,141829095,153.00496850000002,-27.3891572,ELECTRIC
76,D1617,GREENWAYS ESPLANADE PARK,186921,BBQ,electric,"502,012.456","6,943,018.78",141829095,153.0203999,-27.63690065,ELECTRIC
77,D1845,ROCKS RIVERSIDE PARK,126146,BBQ,Electric,"496,396","6,953,354",141829095,152.9634978,-27.54359271,ELECTRIC
78,D0503,MANN PARK,191699,BBQ,electric,"503,267.523","6,964,700.346",141829095,153.03306369999999,-27.44115922,ELECTRIC
79,D1263,KURILPA POINT PARK,118851,BBQ,electric,"501,626.8803",6961541.598999999,141829095,153.0164665,-27.46967936,ELECTRIC
80,D0036,HARDCASTLE PARK,160993,BBQ,electric,"505,320.3837","6,962,563.381",141829095,153.05384569999998,-27.46044528,ELECTRIC
81,D0214,HUXTABLE PARK,66200,BBQ,electric,"501,454.3113",6970582.938999999,141829095,153.014709,-27.38805396,ELECTRIC
82,D1617,GREENWAYS ESPLANADE PARK,34441,BBQ,electric,"502,332.9143",6943884.632999999,141829095,153.0236467,-27.6290834,ELECTRIC
83,D0160,WALTON BRIDGE RESERVE,88771,BBQ,electric,"495,473.44","6,964,280.06",141829095,152.9541947,-27.44494997,ELECTRIC
84,D1902,EAGLE FARM ROAD PARK,121894,BBQ,Electric,"511,864.47","6,967,017.82",141829095,153.1200325,-27.42018922,ELECTRIC
85,D0463,KALINGA PARK,28927,BBQ,electric,"505,409.3481","6,968,100.254",141829095,153.0547214,-27.41045787,ELECTRIC
86,D0502,FLYNN OVAL PARK,108920,BBQ,electric,"503,357.5346","6,964,874.721",141829095,153.033974,-27.43958474,ELECTRIC
87,D2993,MINGOOLA PARK,162203,BBQ,electric,"510,030.92","6,962,745.36",141829095,153.1015178,-27.45877579,ELECTRIC
88,D2635,HAZEL STREET PARK,166523,BBQ,electric,"498,868.05","6,943,294.91",141829095,152.9885259,-27.63440883,ELECTRIC
89,D0276,SANDGATE FORESHORES PARK,105335,BBQ,electric,"506,406.63","6,981,115.31",141829095,153.06474169999998,-27.29295185,ELECTRIC
90,D0119,C.B.MOTT PARK,118395,BBQ,electric,"505,703.02","6,956,411.16",141829095,153.0577472,-27.51598575,ELECTRIC
91,D0597,PRESTON ROAD PARK,118397,BBQ,electric,"511,662.67","6,958,914.8",141829095,153.1180688,-27.49334493,ELECTRIC
92,D0360,WOOLLOONGABBA ROTARY PARK,108881,BBQ,Electric,"504,172","6,959,301",141829095,153.0422346,-27.489902,ELECTRIC
93,D1865,SUMMIT STREET PARK,113822,BBQ,electric,"512,801.16","6,959,241.07",141829095,153.129591,-27.49038913,ELECTRIC
94,D2232,HABITAT DRIVE PARK,81496,BBQ,electric,"516,131.82","6,959,613.96",141829095,153.16330349999998,-27.48698723,ELECTRIC
95,D2232,HABITAT DRIVE PARK,81497,BBQ,electric,"516,135.72","6,959,616.27",141829095,153.1633429,-27.48696633,ELECTRIC
96,D1263,KURILPA POINT PARK,118854,BBQ,electric,"501,616.8781","6,961,538.6",141829095,153.01636519999997,-27.46970645,ELECTRIC
97,D0497,HINKLER PARK,23360,BBQ,electric,"502,360.1256","6,965,732.336",141829095,153.02387980000003,-27.43184425,ELECTRIC
98,D2118,METROPLEX AVENUE (NO. 69) PARK,101057,BBQ,electric,"509,789.12","6,963,897.65",141829095,153.0990614,-27.44837468,ELECTRIC
99,D1931,CALLIOPE CIRCUIT PARK,101442,BBQ,electric,"509,338.39","6,962,185",141829095,153.0945134,-27.46383965,ELECTRIC
100,D0483,WESTBROOK PARK,48146,BBQ,electric,"497,734.37","6,959,650.51",141829095,152.9770649,-27.48675116,ELECTRIC
101,D0530,LOTA CAMPING RESERVE,180693,BBQ,Electric,"519,012.48","6,961,864.41",141829095,153.1924292,-27.46663306,ELECTRIC
102,D2047,WYANDRA CRESCENT PARK,101623,BBQ,electric,"509,087.42","6,962,315.51",141829095,153.0919724,-27.4626631,ELECTRIC
103,D2472,MAIDSTONE STREET PARK,111620,BBQ,electric,"501,571.34","6,963,195",141829095,153.0159022,-27.45475252,ELECTRIC
104,D0132,FERGUSON PARK (ENOGGERA),123320,BBQ,electric (duplicates 66181),"498,649.17","6,966,976.49",141829095,152.9863336,-27.42061335,ELECTRIC
105,D0208,TERALBA PARK,47970,BBQ,Electric barbecue,"498,100.47","6,968,966.34",141829095,152.9807855,-27.4026482,ELECTRIC
106,D0064,GLINDEMANN PARK,13567,BBQ,Electric barbecue,"495,611.23","6,950,455.19",141829095,152.9555389,-27.56976049,ELECTRIC
107,D0664,YIMBUN PARK,47883,BBQ,Electric barbecue,"507,434.82","6,949,922",141829095,153.0753229,-27.57456074,ELECTRIC
108,D0723,CARINDALE REC RESERVE,66097,BBQ,Electric Barbecue,"510,731.81","6,958,531.11",141829095,153.10864850000002,-27.49681653,ELECTRIC
109,D0284,SANDGATE SECOND LAGOON RESERVE,130001,BBQ,Electric barbecue double,"506,492.07","6,978,638.27",141829095,153.0656182,-27.31531465,ELECTRIC
110,D0274,BRIGHTON PARK,45808,BBQ,Electric barbecue double,"506,019.77","6,982,253.69",141829095,153.0608267,-27.28267606,ELECTRIC
111,D0284,SANDGATE SECOND LAGOON RESERVE,130064,BBQ,Electric barbecue double,"506,300.11","6,978,747.49",141829095,153.0636774,-27.31432949,ELECTRIC
112,D1252,TINCHI TAMBA WETLANDS RESERVE,77600,BBQ,Electric barbecue Siingle,"503,245","6,980,364",141829095,153.0327941,-27.29974598,ELECTRIC
113,D1252,TINCHI TAMBA WETLANDS RESERVE,79666,BBQ,Electric barbecue Single,"503,295","6,980,382",141829095,153.0332993,-27.29958335,ELECTRIC
114,D0989,LEACROFT ROAD PARK,26204,BBQ,Electric Barbecue Single,"516,232.45","6,950,362.06",141829095,153.1644464,-27.57051103,ELECTRIC
115,D1810,PACIFIC PARADE PARK,79546,BBQ,Electric barbecue Single,"498,011.6","6,944,680.01",141829095,152.9798467,-27.62190346,ELECTRIC
116,D0577,BENELONG PARK,52822,BBQ,Electric barbecue single plate,"503,998.5","6,968,697.84",141829095,153.0404472,-27.405067699999996,ELECTRIC
117,D0103,GOULD ROAD PARK,179722,BBQ,ELECTRIC BBQ,"502,024.78","6,964,539.13",141829095,153.0204888,-27.442617100000003,ELECTRIC
118,D2024,COWLISHAW STREET PARK,33820,BBQ,ELECTRIC BBQ,"504,138.79","6,963,928.37",141829095,153.04188259999998,-27.44812626,ELECTRIC
119,D0477,MILTON PARK,48002,BBQ,ELECTRIC BBQ,"500,101.75","6,961,427.03",141829095,153.00102990000002,-27.47071466,ELECTRIC
120,D0365,WILLIAMINA PARK,14062,BBQ,ELECTRIC BBQ,"504,493.09","6,960,017.19",141829095,153.0454824,-27.48343524,ELECTRIC
121,D0389,YERONGA MEMORIAL PARK,2478,BBQ,ELECTRIC BBQ,"502,111.47","6,956,171.83",141829095,153.0213806,-27.51815674,ELECTRIC
122,D0498,LANHAM PARK,23383,BBQ,ELECTRIC BBQ,"501,851.32","6,966,586.38",141829095,153.0187304,-27.4241347,ELECTRIC
123,D0473,RAINWORTH PARK,47989,BBQ,ELECTRIC BBQ,"498,323.94","6,961,832.7",141829095,152.9830362,-27.46705124,ELECTRIC
124,D0366,MOWBRAY PARK,28997,BBQ,ELECTRIC BBQ,"504,377.16","6,960,616.29",141829095,153.0443067,-27.47802696,ELECTRIC
125,D0753,JACK PYLE PARK,48340,BBQ,ELECTRIC BBQ,"506,161.68","6,946,878.19",141829095,153.06244009999998,-27.60204614,ELECTRIC
126,D0563,MORTIMER ROAD PARK,49969,BBQ,ELECTRIC BBQ,"501,657.08","6,949,554.15",141829095,153.0167885,-27.57790105,ELECTRIC
127,D0505,WINDSOR PARK,69576,BBQ,ELECTRIC BBQ,"503,788.26","6,965,706.85",141829095,153.0383298,-27.43207112,ELECTRIC
128,D0373,BRISBANE CORSO PARK,26525,BBQ,ELECTRIC BBQ,"501,353.13","6,957,553.89",141829095,153.0137001,-27.50568056,ELECTRIC
129,D1019,GUM NUT NOOK,53238,BBQ,ELECTRIC BBQ,"498,482.24","6,971,069.2",141829095,152.9846499,-27.38366388,ELECTRIC
130,D0471,TOOWONG MEMORIAL PARK,71498,BBQ,ELECTRIC BBQ,"499,236.16","6,960,343.6",141829095,152.992268,-27.48049564,ELECTRIC
131,D0563,MORTIMER ROAD PARK,49950,BBQ,ELECTRIC BBQ,"501,676.7","6,949,539.46",141829095,153.0169873,-27.57803364,ELECTRIC
132,D0797,PEPPERCORN STREET PARK,47393,BBQ,ELECTRIC BBQ,"505,700.61","6,946,540.09",141829095,153.0577694,-27.60510047,ELECTRIC
133,D0819,FALSTAFF STREET PARK,33594,BBQ,ELECTRIC BBQ,"505,087.55","6,946,380.77",141829095,153.0515574,-27.60654122,ELECTRIC
134,D0492,DOWNEY PARK,47432,BBQ,ELECTRIC BBQ,"502,488.57","6,964,658.62",141829095,153.0251816,-27.44153757,ELECTRIC
135,D0664,YIMBUN PARK,45829,BBQ,Electric BBQ,"507,438.04","6,949,957.13",141829095,153.0753553,-27.57424358,ELECTRIC
136,D0568,GRENIER PARK,50458,BBQ,ELECTRIC BBQ,"501,888.08","6,949,373.9",141829095,153.01912919999998,-27.57952801,ELECTRIC
137,D1426,SIR JAMES KILLEN RESERVE PARK,170855,BBQ,ELECTRIC BBQ,"505,018.24","6,948,509.53",141829095,153.0508462,-27.58732342,ELECTRIC
138,D1335,GAINSBOROUGH AVENUE PARK,161440,BBQ,Electric BBQ,"512,427.77","6,953,493.33",141829095,153.1258701,-27.54228266,ELECTRIC
139,D0449,BOYD PARK,70060,BBQ,ELECTRIC BBQ,"505,685.34","6,969,080.67",141829095,153.05750880000002,-27.40160549,ELECTRIC
140,D2028,TALISKER PLACE PARK,37651,BBQ,ELECTRIC BBQ,"502,464.17","6,942,716.37",141829095,153.0249795,-27.63962998,ELECTRIC
141,D0699,HERCULES STREET PARK,33579,BBQ,ELECTRIC BBQ,"506,859.86","6,964,916.12",141829095,153.0694129,-27.43919784,ELECTRIC
142,D1381,AMAZON PLACE PARK,172158,BBQ,ELECTRIC BBQ,"495,695.13","6,954,352.57",141829095,152.95640269999998,-27.53457568,ELECTRIC
143,D1572,WAKERLEY PARK,47720,BBQ,ELECTRIC BBQ,"514,865","6,959,669",141829095,153.15047869999998,-27.48650478,ELECTRIC
144,D0559,D.M.HENDERSON PARK,15889,BBQ,ELECTRIC BBQ,"507,084.58","6,950,467.71",141829095,153.07177140000002,-27.56963603,ELECTRIC
145,D1722,ALGESTER ROAD PARK (NO.515),28474,BBQ,ELECTRIC BBQ,"502,874.57","6,943,081.97",141829095,153.0291389,-27.63632862,ELECTRIC
146,D3013,PATONGA STREET PARK,169826,BBQ,ELECTRIC BBQ,"508,392.92","6,971,683.81",141829095,153.0848788,-27.37809015,ELECTRIC
147,D0559,D.M.HENDERSON PARK,15879,BBQ,ELECTRIC BBQ,"507,053.72","6,950,452.08",141829095,153.07145880000002,-27.5697773,ELECTRIC
148,D2147,WATHEROO PLACE PARK,174181,BBQ,ELECTRIC BBQ,"501,806.16","6,942,565.84",141829095,153.0183094,-27.64098998,ELECTRIC
149,D0375,FAIRFIELD PARK,174396,BBQ,ELECTRIC BBQ,"502,615.15","6,957,760.76",141829095,153.0264774,-27.50381111,ELECTRIC
150,D0317,NIXON PARK,46260,BBQ,ELECTRIC BBQ,"497,898.45","6,952,376.53",141829095,152.9787133,-27.55242036,ELECTRIC
151,D2996,GREY GUMS PARK,174848,BBQ,ELECTRIC BBQ,"501,326.64","6,963,547.21",141829095,153.0134254,-27.45157303,ELECTRIC
152,D1961,BUCKINGHAM PLACE PARK,170722,BBQ,ELECTRIC BBQ,"509,529.85","6,949,860.29",141829095,153.0965483,-27.57510472,ELECTRIC
153,D0095,NEW FARM PARK,145860,BBQ,ELECTRIC BBQ,"505,145.43","6,961,675.87",141829095,153.0520788,-27.468458399999996,ELECTRIC
154,D0192,WOOLCOCK PARK,36832,BBQ,ELECTRIC BBQ,"499,896.97","6,963,854.23",141829095,152.9989574,-27.44880189,ELECTRIC
155,D0192,WOOLCOCK PARK,28725,BBQ,ELECTRIC BBQ,"499,917.25","6,963,799.71",141829095,152.9991626,-27.4492941,ELECTRIC
156,D0563,MORTIMER ROAD PARK,34713,BBQ,ELECTRIC BBQ,"501,668.68","6,949,544.38",141829095,153.0169061,-27.57798923,ELECTRIC
157,D2190,BRUSH BOX PLACE PARK,134836,BBQ,ELECTRIC BBQ,"499,397.95","6,943,540.5",141829095,152.9938974,-27.63219204,ELECTRIC
158,D2190,BRUSH BOX PLACE PARK,134937,BBQ,ELECTRIC BBQ,"499,142.01","6,943,459.88",141829095,152.99130300000002,-27.63291972,ELECTRIC
159,D2554,MCLEOD COURT PARK,101012,BBQ,ELECTRIC BBQ,"499,593.55","6,970,452.51",141829095,152.99588909999997,-27.3892322,ELECTRIC
160,D2005,DAINTREE DRIVE PARK (NO.65),37572,BBQ,ELECTRIC BBQ,"503,034.44","6,942,536.58",141829095,153.0307608,-27.64125192,ELECTRIC
161,D1936,SEABROOK CIRCUIT PARK,142553,BBQ,ELECTRIC BBQ,"491,571.29","6,952,588.08",141829095,152.9146265,-27.55048592,ELECTRIC
162,D1722,ALGESTER ROAD PARK (NO.515),24401,BBQ,ELECTRIC BBQ,"502,835.92","6,943,059.41",141829095,153.02874719999997,-27.63653237,ELECTRIC
163,D0563,MORTIMER ROAD PARK,33997,BBQ,ELECTRIC BBQ,"501,652.95","6,949,545.89",141829095,153.0167467,-27.57797562,ELECTRIC
164,D1194,SPRINGFIELD CRESCENT PARK,3121,BBQ,ELECTRIC BBQ,"503,131.39","6,943,494.49",141829095,153.03174109999998,-27.63260391,ELECTRIC
165,D0227,MARCHANT PARK,153330,BBQ,ELECTRIC BBQ,"502,946.68","6,971,707.85",141829095,153.0298001,-27.37789574,ELECTRIC
166,D0200,KOKODA PARK,153840,BBQ,ELECTRIC BBQ,"502,823.62","6,966,878.37",141829095,153.0285668,-27.42149693,ELECTRIC
167,D3124,RAY STREET PARK,156026,BBQ,ELECTRIC BBQ,"501,970.22","6,975,643.8",141829095,153.0199187,-27.34236323,ELECTRIC
168,D0010,FAULKNER PARK,172113,BBQ,ELECTRIC BBQ,"498,631.17","6,956,137.92",141829095,152.98613930000002,-27.51846383,ELECTRIC
169,D1709,ALBANY CREEK ROAD PARK (NO.151),143347,BBQ,ELECTRIC BBQ,"500,658.35","6,973,759.41",141829095,153.00665690000002,-27.35937703,ELECTRIC
170,D0311,NOSWORTHY PARK,179670,BBQ,Electric BBQ,"498,777.31","6,953,800.46",141829095,152.9876167,-27.53956636,ELECTRIC
171,D2005,DAINTREE DRIVE PARK (NO.65),178570,BBQ,ELECTRIC BBQ,"503,039.66","6,942,530.71",141829095,153.0308138,-27.64130491,ELECTRIC
172,D0360,WOOLLOONGABBA ROTARY PARK,170231,BBQ,ELECTRIC BBQ,"504,169.16","6,959,301.48",141829095,153.04220580000003,-27.48989768,ELECTRIC
173,D0095,NEW FARM PARK,145772,BBQ,ELECTRIC BBQ,"505,151.01","6,961,673.91",141829095,153.0521353,-27.46847607,ELECTRIC
174,D0085,PERRY PARK,35758,BBQ,ELECTRIC BBQ,"504,094.19","6,964,339.89",141829095,153.04142990000003,-27.44441119,ELECTRIC
175,D0019,THE BEIRNE PARK,182260,BBQ,Electric BBQ,"506,782.25","6,967,141.9",141829095,153.06861519999998,-27.41910381,ELECTRIC
176,D0658,KIANAWAH ROAD PARK (NO.330),179879,BBQ,Electric BBQ,"514,479.34","6,962,926.72",141829095,153.1465358,-27.45709839,ELECTRIC
177,D1381,AMAZON PLACE PARK,4632,BBQ,ELECTRIC BBQ,"495,683.07","6,954,374.44",141829095,152.95628069999998,-27.5343782,ELECTRIC
178,D0019,THE BEIRNE PARK,182259,BBQ,Electric BBQ,"506,820.69","6,967,148.22",141829095,153.069004,-27.41904656,ELECTRIC
179,D1426,SIR JAMES KILLEN RESERVE PARK,178852,BBQ,ELECTRIC BBQ,"505,011.54","6,948,508.45",141829095,153.05077830000002,-27.58733319,ELECTRIC
180,D0678,COL BENNET PARK,47489,BBQ,ELECTRIC BBQ,"502,744","6,945,334",141829095,153.0278102,-27.61599805,ELECTRIC
181,D0650,JAMBOREE LIONS COMMUNITY PARK,7761,BBQ,ELECTRIC BBQ,"491,913.98","6,951,651.28",141829095,152.91809130000001,-27.55894532,ELECTRIC
182,D0699,HERCULES STREET PARK,33241,BBQ,ELECTRIC BBQ,"506,848.78","6,964,961.36",141829095,153.0693005,-27.43878947,ELECTRIC
183,D0662,KENNA STREET PARK,45827,BBQ,ELECTRIC BBQ,"501,280.91","6,971,591.01",141829095,153.0129541,-27.37895316,ELECTRIC
184,D0662,KENNA STREET PARK,34284,BBQ,ELECTRIC BBQ,"501,267.93","6,971,605.84",141829095,153.0128228,-27.37881929,ELECTRIC
185,D2112,BEDGOOD PARK,172963,BBQ,ELECTRIC BBQ,"500,526.18","6,962,335.86",141829095,153.0053254,-27.46250965,ELECTRIC
186,D2083,SUNSET PLACE PARK,46736,BBQ,ELECTRIC BBQ,"498,417.9","6,971,310.36",141829095,152.9839995,-27.38148658,ELECTRIC
187,D0023,ROBINSON PARK (FAIRFIELD),48419,BBQ,ELECTRIC BBQ,"502,303.43","6,957,268.3",141829095,153.02332230000002,-27.50825757,ELECTRIC
188,D1768,STREISAND DRIVE PARK,172662,BBQ,ELECTRIC BBQ,"498,143.75","6,972,168.66",141829095,152.98122819999998,-27.37373741,ELECTRIC
189,D0366,MOWBRAY PARK,32731,BBQ,ELECTRIC BBQ -,"504,356.24","6,960,620.69",141829095,153.0440949,-27.477987300000002,ELECTRIC
190,D0216,FREDERICK ANNAND PARK,48143,BBQ,ELECTRIC BBQ - DOUBLE,"501,832.99","6,971,580.98",141829095,153.0185374,-27.37904309,ELECTRIC
191,D0017,FENWICK PARK,179566,BBQ,Electric BBQ & Conc Slab & Elec Conn,"497,145.78","6,967,913.37",141829095,152.971126,-27.41215283,ELECTRIC
192,D0541,TONKS STREET PARK,47231,BBQ,Electric BBQ & SLAB,"501,916.75","6,953,755.41",141829095,153.01941269999998,-27.53997226,ELECTRIC
193,D0478,GREGORY PARK,49318,BBQ,Electric BBQ (hexagonal),"499,936","6,961,894",141829095,152.99935219999998,-27.46649886,ELECTRIC
194,D0478,GREGORY PARK,49259,BBQ,Electric BBQ (hexagonal),"499,915","6,961,925",141829095,152.9991397,-27.46621899,ELECTRIC
195,D0024,KEITH PAYNE PARK,179527,BBQ,Electric BBQ and Pad,"502,154.55","6,968,207.1",141829095,153.0217954,-27.4095023,ELECTRIC
196,D0805,J.C.TROTTER MEMORIAL PARK,79320,BBQ,Electric bbq dble,"517,429.5","6,952,642.49",141829095,153.17654040000002,-27.54990881,ELECTRIC
197,D0178,BOWMAN PARK,49369,BBQ,Electric BBQ Dble,"497,692.84","6,962,978.29",141829095,152.97665080000002,-27.45670793,ELECTRIC
198,D2171,SANCTUARY DRIVE PARK,49716,BBQ,Electric BBQ Dble,"498,386","6,943,150",141829095,152.98363930000002,-27.63571656,ELECTRIC
199,D0709,ANSTEAD BUSHLAND RESERVE,48294,BBQ,Electric BBQ Dble & shelter,"486,278.68","6,953,389.09",141829095,152.86102749999998,-27.54321125,ELECTRIC
200,D0572,LES ATKINSON PARK,49520,BBQ,Electric BBQ Dble @ Beenleigh Rd area,"505,615.17","6,948,760.01",141829095,153.0568933,-27.58505978,ELECTRIC
201,D0305,SHERWOOD FOREST PARK,48704,BBQ,Electric BBQ dble Ellipse shape,"497,364","6,954,624",141829095,152.97330469999997,-27.53212951,ELECTRIC
202,D2141,HINCHINBROOK CIRCUIT PARK,49690,BBQ,Electric BBQ Dble on concrete & S/s bench,"497,985","6,943,005",141829095,152.9795743,-27.63702504,ELECTRIC
203,D0096,CITY BOTANIC GARDENS,132737,BBQ,ELECTRIC BBQ ON BRICK BENCHTOP,"502,784.48","6,960,509.13",141829095,153.0281855,-27.478998600000004,ELECTRIC
204,D0582,THRUSH STREET PARK,71925,BBQ,Electric BBQ on concrete slab,"497,812.5","6,947,121.14",141829095,152.9778331,-27.599865100000002,ELECTRIC
205,D0582,THRUSH STREET PARK,71938,BBQ,Electric BBQ on concrete slab,"497,745.09","6,947,125.44",141829095,152.97715,-27.59982617,ELECTRIC
206,D2613,WESTAWAY PARK,135805,BBQ,ELECTRIC BBQ ON MARBLE BENCHTOP,"487,447.14","6,950,327.16",141829095,152.87283,-27.57086523,ELECTRIC
207,D0113,PERTH STREET PARK,161587,BBQ,Electric BBQ on slab,"507,305.67","6,959,738.71",141829095,153.0739551,-27.48593714,ELECTRIC
208,D0031,HEMMANT RECREATION RESERVE,123077,BBQ,"Electric BBQ powerlink queensland, octagon shaped","512,412.35","6,963,662.28",141829095,153.12560969999998,-27.4504782,ELECTRIC
209,D1279,THE LAKE PARKLANDS,121419,BBQ,Electric BBQ rectangle shaped,"496,313.4","6,944,872.05",141829095,152.9626352,-27.62016619,ELECTRIC
210,D0545,TOOHEY FOREST PARK,84673,BBQ,Electric BBQ rectangle shaped,"504,036.93","6,954,164.19",141829095,153.0408844,-27.53627718,ELECTRIC
211,D0545,TOOHEY FOREST PARK,84676,BBQ,Electric BBQ rectangle shaped,"504,061.63","6,954,169.54",141829095,153.0411345,-27.53622881,ELECTRIC
212,D1279,THE LAKE PARKLANDS,117034,BBQ,Electric bbq rectangle shaped tile bench top,"496,739.4","6,944,706.13",141829095,152.9669524,-27.62166518,ELECTRIC
213,D0680,KANGAROO POINT CLIFFS PARK,118853,BBQ,Electric BBQ single,"503,326.4","6,960,512.17",141829095,153.0336709,-27.47896993,ELECTRIC
214,D0799,NILKERIE STREET PARK,48087,BBQ,ELECTRIC BBQ SINGLE,"502,504.23","6,975,209.33",141829095,153.0253184,-27.34628481,ELECTRIC
215,D0275,DECKER PARK,45868,BBQ,Electric BBQ single,"506,373.07","6,981,916.86",141829095,153.06439840000002,-27.28571544,ELECTRIC
216,D0680,KANGAROO POINT CLIFFS PARK,118855,BBQ,Electric BBQ single,"503,362","6,960,591",141829095,153.0340311,-27.47825817,ELECTRIC
217,D0172,ORIEL PARK,48537,BBQ,Electric BBQ single,"505,729.2","6,966,008.45",141829095,153.0579669,-27.42934148,ELECTRIC
218,D2138,WHITMORE STREET PARK,47936,BBQ,ELECTRIC BBQ SINGLE,"498,758.98","6,959,178.87",141829095,152.9874366,-27.49101043,ELECTRIC
219,D1463,HAMISH STREET PARK,47789,BBQ,ELECTRIC BBQ SINGLE,"504,330.15","6,944,945.41",141829095,153.0438871,-27.61950201,ELECTRIC
220,D1576,PAT RAFTER PARK,48739,BBQ,Electric BBQ single,"500,940.25","6,975,747.3",141829095,153.00950569999998,-27.34142991,ELECTRIC
221,D0612,BELLEVUE AVENUE PARK,50039,BBQ,Electric BBQ Single,"498,195.55","6,968,100.58",141829095,152.981746,-27.41046448,ELECTRIC
222,D0305,SHERWOOD FOREST PARK,48706,BBQ,Electric BBQ single (hexagonal),"497,393","6,954,552",141829095,152.9735982,-27.53277957,ELECTRIC
223,D0909,ALLAWAH STREET PARK,48685,BBQ,Electric BBQ single (this BBQ may be in D0810),"507,170","6,948,355",141829095,153.0726493,-27.58870879,ELECTRIC
224,D0054,LAVARACK PARK,123935,BBQ,Electric bbq single on 3x1 m table,"508,298.86","6,959,331.66",141829095,153.0840119,-27.48960626,ELECTRIC
225,D1470,NORTHUMBRIA ROAD PARK,71701,BBQ,Electric BBQ single on a 3m x 3m concrete slab,"507,305.18","6,973,993.48",141829095,153.0738645,-27.35724444,ELECTRIC
226,D0193,TENNIS AVENUE PARK,49880,BBQ,Electric BBQ Single on slab,"500,188.52","6,964,468.25",141829095,153.00190759999998,-27.443258500000002,ELECTRIC
227,D0509,BRADSHAW PARK,179613,BBQ,"Electric BBQ,  Slab and Electric Connection","503,188.11","6,967,074.52",141829095,153.0322539,-27.41972527,ELECTRIC
228,D0276,SANDGATE FORESHORES PARK,3753,BBQ,Electric Dble,"506,884.42","6,978,877.92",141829095,153.0695825,-27.31314913,ELECTRIC
229,D0346,ORLEIGH PARK,1002,BBQ,Electric Dble,"500,247.63","6,959,293.17",141829095,153.00250680000002,-27.48997908,ELECTRIC
230,D0219,JOHN STEWART MEMORIAL PARK,43105,BBQ,Electric Dble,"500,882","6,977,410",141829095,153.0089157,-27.32641882,ELECTRIC
231,D0711,HAROLD KIELLY PARK,33000,BBQ,Electric Dble,"502,100","6,979,193",141829095,153.0212247,-27.31032023,ELECTRIC
232,D0097,RAYMOND PARK,33373,BBQ,Electric Dble,"503,823","6,960,372",141829095,153.0386981,-27.48023408,ELECTRIC
233,D1551,SVOBODA PARK,33969,BBQ,Electric Dble,"509,629.15","6,946,484.09",141829095,153.0975813,-27.60558374,ELECTRIC
234,D0438,NUDGEE BEACH RESERVE,36731,BBQ,Electric Dble,"510,095","6,975,441",141829095,153.10206100000002,-27.34415827,ELECTRIC
235,D0383,MOOROOKA LIONS BICENT. PICNIC GRND PARK,2290,BBQ,Electric Dble,"502,063.54","6,955,282.88",141829095,153.0208968,-27.52618219,ELECTRIC
236,D1845,ROCKS RIVERSIDE PARK,36154,BBQ,Electric Dble,"496,161","6,953,445",141829095,152.9611179,-27.54277053,ELECTRIC
237,D0434,BROADWATER PICNIC GROUND PARK,108773,BBQ,Electric dble,"511,002.14","6,953,222.5",141829095,153.1114336,-27.54474,ELECTRIC
238,D1279,THE LAKE PARKLANDS,30844,BBQ,Electric Dble,"496,354","6,944,393",141829095,152.96304530000003,-27.62449107,ELECTRIC
239,D0518,GEORGE CLAYTON PARK,15229,BBQ,Electric Dble,"518,335","6,964,096",141829095,153.1855385,-27.44649566,ELECTRIC
240,D0056,WHITES HILL RESERVE,7007,BBQ,Electric Dble,"507,796.97","6,957,198.27",141829095,153.0789449,-27.50886936,ELECTRIC
241,D1845,ROCKS RIVERSIDE PARK,36153,BBQ,Electric Dble,"496,246","6,953,557",141829095,152.9619792,-27.54175964,ELECTRIC
242,D0288,MOORA PARK,34715,BBQ,Electric Dble,"508,459.91","6,977,553.18",141829095,153.0855156,-27.32510028,ELECTRIC
243,D0288,MOORA PARK,34149,BBQ,Electric Dble,"508,423.96","6,977,594.62",141829095,153.0851519,-27.32472638,ELECTRIC
244,D0434,BROADWATER PICNIC GROUND PARK,37070,BBQ,Electric Dble,"510,978.83","6,953,269.49",141829095,153.1111971,-27.54431597,ELECTRIC
245,D1158,MULBEAM PARK,2973,BBQ,Electric Dble,"505,260.24","6,974,634.15",141829095,153.05318480000003,-27.35146979,ELECTRIC
246,D0276,SANDGATE FORESHORES PARK,3754,BBQ,Electric Dble,"506,808","6,978,961.81",141829095,153.06880969999997,-27.31239214,ELECTRIC
247,D0206,BOLES STREET PARK,35055,BBQ,Electric Dble,"500,277","6,968,555",141829095,153.002802,-27.40636311,ELECTRIC
248,D0355,DUTTON PARK,180111,BBQ,Electric dble (LOCATION AS PER PROPOSED PLAN),"502,442.49","6,958,643.47",141829095,153.02472749999998,-27.49584237,ELECTRIC
249,D0570,C.A.O SULLIVAN PARK,37297,BBQ,Electric Dble barbecue,"502,408.36","6,948,598",141829095,153.024402,-27.58653189,ELECTRIC
250,D0438,NUDGEE BEACH RESERVE,45865,BBQ,Electric Dble BBQ,"510,004","6,975,486",141829095,153.1011407,-27.34375267,ELECTRIC
251,D2035,JUBILEE AVENUE PARK,36658,BBQ,Electric Dble on tile bench,"494,715","6,944,106",141829095,152.94643159999998,-27.62707662,ELECTRIC
252,D0305,SHERWOOD FOREST PARK,33649,BBQ,Electric Dble rectangle shape,"497,356","6,954,639",141829095,152.9732237,-27.53199407,ELECTRIC
253,D1845,ROCKS RIVERSIDE PARK,122679,BBQ,Electric Dble rectangle shaped,"495,978.86","6,953,585.32",141829095,152.95927360000002,-27.54150321,ELECTRIC
254,D1845,ROCKS RIVERSIDE PARK,36155,BBQ,Electric Dble rectangular,"495,989","6,953,490",141829095,152.959376,-27.54236377,ELECTRIC
255,D0035,COLMSLIE RESERVE,101016,BBQ,electric double,"508,176","6,963,779",141829095,153.0827382,-27.44945651,ELECTRIC
256,D0286,CLIFF STREET PARK,106912,BBQ,Electric double,"507,390.83","6,978,056.17",141829095,153.07470590000003,-27.3205654,ELECTRIC
257,D2672,BULIMBA RIVERSIDE PARK,92402,BBQ,electric double,"505,307.72","6,963,331.32",141829095,153.0537142,-27.45351238,ELECTRIC
258,D0680,KANGAROO POINT CLIFFS PARK,136627,BBQ,Electric double,"503,485","6,960,846",141829095,153.0352754,-27.47595572,ELECTRIC
259,D0074,BEDFORD PLAYGROUND PARK,28407,BBQ,Electric Double,"502,803.31","6,962,977.59",141829095,153.02837040000003,-27.45671332,ELECTRIC
260,D0680,KANGAROO POINT CLIFFS PARK,136625,BBQ,Electric double,"503,487","6,960,920",141829095,153.03529540000002,-27.47528765,ELECTRIC
261,D0228,7TH BRIGADE PARK,20625,BBQ,Electric Double,"504,474.62","6,971,676.89",141829095,153.0452525,-27.3781711,ELECTRIC
262,D0126,SID LODER PARK,161783,BBQ,Electric double,"497,813","6,967,350",141829095,152.97787480000002,-27.417240200000002,ELECTRIC
263,D0723,CARINDALE REC RESERVE,161420,BBQ,Electric double,"510,737.47","6,958,428.9",141829095,153.10870669999997,-27.49773924,ELECTRIC
264,D2672,BULIMBA RIVERSIDE PARK,92394,BBQ,electric double,"505,305.45","6,963,302.45",141829095,153.05369140000002,-27.45377303,ELECTRIC
265,D0530,LOTA CAMPING RESERVE,118456,BBQ,Electric double,"518,989","6,961,971",141829095,153.1921898,-27.4656711,ELECTRIC
266,D0284,SANDGATE SECOND LAGOON RESERVE,130065,BBQ,Electric double,"506,346.84","6,978,747.67",141829095,153.06414980000002,-27.31432765,ELECTRIC
267,D0680,KANGAROO POINT CLIFFS PARK,136626,BBQ,Electric double,"503,487","6,960,885",141829095,153.03529550000002,-27.47560363,ELECTRIC
268,D0228,7TH BRIGADE PARK,28848,BBQ,Electric Double,"503,343.4","6,971,618.14",141829095,153.0338125,-27.37870474,ELECTRIC
269,D0658,KIANAWAH ROAD PARK (NO.330),118401,BBQ,Electric double,"514,475","6,962,895",141829095,153.14649219999998,-27.4573848,ELECTRIC
270,D0658,KIANAWAH ROAD PARK (NO.330),118410,BBQ,Electric double,"514,480","6,962,859",141829095,153.14654330000002,-27.45770976,ELECTRIC
271,D0228,7TH BRIGADE PARK,112924,BBQ,Electric double,"504,509.78","6,971,615.39",141829095,153.0456083,-27.37872621,ELECTRIC
272,D0804,BILL BROWN SPORTS RESERVE,118706,BBQ,Electric double,"503,514","6,975,916",141829095,153.03552539999998,-27.33990267,ELECTRIC
273,D0658,KIANAWAH ROAD PARK (NO.330),118402,BBQ,Electric double,"514,474","6,962,877",141829095,153.1464823,-27.45754732,ELECTRIC
274,D0228,7TH BRIGADE PARK,112603,BBQ,Electric double,"503,358.29","6,971,676.69",141829095,153.0339629,-27.3781761,ELECTRIC
275,D0518,GEORGE CLAYTON PARK,114078,BBQ,Electric double,"518,236.78","6,964,107.65",141829095,153.18454450000002,-27.4463918,ELECTRIC
276,D0276,SANDGATE FORESHORES PARK,68761,BBQ,Electric double - stainless steel top,"507,192.58","6,978,346.9",141829095,153.0727003,-27.31794169,ELECTRIC
277,D0276,SANDGATE FORESHORES PARK,68759,BBQ,Electric double - stainless steel top,"507,091.22","6,978,479.32",141829095,153.071675,-27.31674671,ELECTRIC
278,D0276,SANDGATE FORESHORES PARK,68768,BBQ,Electric double - stainless steel top,"508,182.19","6,977,906.39",141829095,153.0827059,-27.32191313,ELECTRIC
279,D0276,SANDGATE FORESHORES PARK,68769,BBQ,Electric double - stainless steel top,"508,335.6","6,977,743.19",141829095,153.0842577,-27.3233856,ELECTRIC
280,D0276,SANDGATE FORESHORES PARK,68763,BBQ,Electric double - stainless steel top,"508,024.51","6,977,864.76",141829095,153.0811124,-27.32228991,ELECTRIC
281,D0276,SANDGATE FORESHORES PARK,68765,BBQ,Electric double - stainless steel top,"508,323.59","6,977,727.45",141829095,153.0841364,-27.32352778,ELECTRIC
282,D0276,SANDGATE FORESHORES PARK,68764,BBQ,Electric double - stainless steel top,"508,268.93","6,977,866.63",141829095,153.083583,-27.32227157,ELECTRIC
283,D0276,SANDGATE FORESHORES PARK,68766,BBQ,Electric double - stainless steel top,"508,327.13","6,977,754.99",141829095,153.084172,-27.32327912,ELECTRIC
284,D0276,SANDGATE FORESHORES PARK,68762,BBQ,Electric double - stainless steel top,"508,239.62","6,977,885.77",141829095,153.08328659999998,-27.32209895,ELECTRIC
285,D0228,7TH BRIGADE PARK,50301,BBQ,Electric double BBQ,"503,319.41","6,971,677.31",141829095,153.0335697,-27.3781706,ELECTRIC
286,D0517,BAYSIDE PARK,69132,BBQ,Electric double BBQ,"518,508.95","6,963,473.3",141829095,153.1873083,-27.45211502,ELECTRIC
287,D0995,WYNNUM WADING POOL PARK,70665,BBQ,Electric double BBQ,"517,454","6,964,549",141829095,153.1766169,-27.44241757,ELECTRIC
288,D0517,BAYSIDE PARK,69133,BBQ,Electric double BBQ,"518,477.07","6,963,516.24",141829095,153.18698500000002,-27.45172779,ELECTRIC
289,D0572,LES ATKINSON PARK,67759,BBQ,Electric double BBQ,"505,223.9","6,948,967.13",141829095,153.052928,-27.583191499999998,ELECTRIC
290,D0517,BAYSIDE PARK,69134,BBQ,Electric double BBQ,"518,467.01","6,963,504.68",141829095,153.1868834,-27.45183229,ELECTRIC
291,D0245,SHAW ESTATE PARK,68481,BBQ,Electric double BBQ,"504,685.11","6,968,932.42",141829095,153.0473918,-27.40294771,ELECTRIC
292,D1082,MATISSE STREET PARK,68485,BBQ,Electric double BBQ,"502,040.16","6,975,337.47",141829095,153.0206263,-27.34512872,ELECTRIC
293,D0386,MOOLABIN PARK,50139,BBQ,Electric double BBQ @ picnic shelter,"502,531.13","6,955,027.49",141829095,153.0256324,-27.52848704,ELECTRIC
294,D1544,WENDOUREE CRESCENT PARK,50400,BBQ,Electric double BBQ on slab,"490,535.4","6,953,084.41",141829095,152.904138,-27.54599828,ELECTRIC
295,D0512,MELROSE PARK,53195,BBQ,Electric double Plate,"504,402","6,967,788",141829095,153.0445322,-27.41328055,ELECTRIC
296,D0243,O CALLAGHAN PARK,53207,BBQ,Electric double Plate,"504,318.67","6,973,525.05",141829095,153.0436688,-27.36148619,ELECTRIC
297,D0804,BILL BROWN SPORTS RESERVE,72051,BBQ,Electric double stainless Steel BBQ,"503,541.32","6,975,941.41",141829095,153.0358015,-27.33967319,ELECTRIC
298,D0709,ANSTEAD BUSHLAND RESERVE,110124,BBQ,electric double with shelter,"486,312.25","6,953,389.44",141829095,152.8613675,-27.54320842,ELECTRIC
299,D1354,SELKIRK CRESCENT PARK,124825,BBQ,Electric octaganal,"491,862","6,968,125",141829095,152.9176754,-27.41022091,ELECTRIC
300,D0774,STONYCROFT STREET PARK,52823,BBQ,Electric octagonal stless steel bbq,"500,880.74","6,972,557.18",141829095,153.0089064,-27.37023079,ELECTRIC
301,D0346,ORLEIGH PARK,91727,BBQ,electric on brick,"499,846.68","6,959,344.47",141829095,152.9984479,-27.48951596,ELECTRIC
302,D2009,MACQUARIE WAY PARK (NO.123),49959,BBQ,electric rectangle,"505,631.5571","6,941,234.833",141829095,153.0570945,-27.65299544,ELECTRIC
303,D1195,BILLABONG PLACE PARK,37396,BBQ,electric rectangle,"503,748.2557","6,943,429.636",141829095,153.03799419999999,-27.63318783,ELECTRIC
304,D1195,BILLABONG PLACE PARK,186286,BBQ,electric rectangle,"503,641.9503","6,943,531.545",141829095,153.03691630000003,-27.632268100000005,ELECTRIC
305,D1338,LAKEWOOD AVENUE PARK,186195,BBQ,electric rectangle,"504,002.3514",6943167.438999999,141829095,153.0405707,-27.63555415,ELECTRIC
306,D1845,ROCKS RIVERSIDE PARK,122776,BBQ,Electric rectangle shaped,"496,349.19","6,953,406.32",141829095,152.9630238,-27.54312025,ELECTRIC
307,D0150,UPPER KEDRON RECREATION RESERVE,121880,BBQ,Electric rectangle shaped,"492,431.53","6,968,158.76",141829095,152.9234371,-27.409919399999996,ELECTRIC
308,D0150,UPPER KEDRON RECREATION RESERVE,121878,BBQ,Electric rectangle shaped,"492,420.99","6,968,121.74",141829095,152.92333019999998,-27.41025356,ELECTRIC
309,D1939,MT CROSBY SPORTSGROUND,121164,BBQ,Electric rectangle shaped,"479,833.21","6,953,686.07",141829095,152.7957516,-27.54044956,ELECTRIC
310,D1939,MT CROSBY SPORTSGROUND,121172,BBQ,Electric rectangle shaped,"479,826.49","6,953,681.02",141829095,152.7956835,-27.54049506,ELECTRIC
311,D0204,GIBSON PARK,49467,BBQ,Electric s/steel BBQ dble,"501,471","6,967,961",141829095,153.0148809,-27.41172501,ELECTRIC
312,D0553,SALISBURY RECREATION RESERVE,24113,BBQ,Electric Single,"503,278.68","6,952,715.7",141829095,153.033209,-27.54935604,ELECTRIC
313,D0686,BRUSHBOX PARK,2896,BBQ,Electric Single,"508,723.86","6,952,306.04",141829095,153.08836499999998,-27.55303028,ELECTRIC
314,D0229,JOHN PATTERSON PARK,25730,BBQ,Electric Single,"502,792.13","6,970,559.42",141829095,153.0282398,-27.38826421,ELECTRIC
315,D0982,BISSET PLACE PARK,67598,BBQ,Electric single,"499,168.13","6,970,935.28",141829095,152.9915867,-27.38487351,ELECTRIC
316,D0346,ORLEIGH PARK,33566,BBQ,Electric Single,"499,804","6,959,339",141829095,152.99801580000002,-27.48956534,ELECTRIC
317,D0346,ORLEIGH PARK,28669,BBQ,Electric Single,"499,804","6,959,339",141829095,152.99801580000002,-27.48956534,ELECTRIC
318,D1251,BRAMPTON STREET PARK,47043,BBQ,Electric single,"509,733.53","6,950,171.44",141829095,153.09860930000002,-27.57229426,ELECTRIC
319,D0948,SOAMES STREET PARK,2589,BBQ,Electric Single,"498,232","6,970,243",141829095,152.9821179,-27.39112259,ELECTRIC
320,D0242,JOSEPH LEE PARK,9779,BBQ,Electric Single,"504,768.21","6,974,485.4",141829095,153.0482106,-27.35281453,ELECTRIC
321,D0224,LEN TREZONA PARK,29129,BBQ,Electric Single,"503,655.95","6,973,316.08",141829095,153.0369683,-27.36337474,ELECTRIC
322,D0837,JOHN TUCKER PARK,4017,BBQ,Electric Single,"497,869.26","6,969,964.84",141829095,152.9784485,-27.39363332,ELECTRIC
323,D1178,LAMBERT MCBRIDE PARK,33515,BBQ,Electric Single,"505,038","6,973,910.11",141829095,153.0509408,-27.35800736,ELECTRIC
324,D0305,SHERWOOD FOREST PARK,606,BBQ,Electric Single,"497,376","6,954,624",141829095,152.97342619999998,-27.53212953,ELECTRIC
325,D0995,WYNNUM WADING POOL PARK,70625,BBQ,Electric Single,"517,397","6,964,638",141829095,153.1760389,-27.44161481,ELECTRIC
326,D0227,MARCHANT PARK,41644,BBQ,Electric Single,"502,952.8","6,971,711.02",141829095,153.029862,-27.37786711,ELECTRIC
327,D0346,ORLEIGH PARK,1003,BBQ,Electric Single,"500,123.47","6,959,296.56",141829095,153.0012499,-27.48994849,ELECTRIC
328,D0276,SANDGATE FORESHORES PARK,30234,BBQ,Electric Single,"508,202.01","6,977,881.31",141829095,153.0829064,-27.32213944,ELECTRIC
329,D0197,BANCROFT PARK,36057,BBQ,Electric Single,"500,570.81","6,964,373.62",141829095,153.0057761,-27.44411271,ELECTRIC
330,D0078,TENERIFFE PARK,19398,BBQ,Electric Single,"504,591","6,962,793",141829095,153.046463,-27.45837494,ELECTRIC
331,D0287,SHEPHERD PLACE PARK,25639,BBQ,Electric Single,"507,992.56","6,977,806.83",141829095,153.0807898,-27.322813099999998,ELECTRIC
332,D1815,CARNARVON WAY PARK,38932,BBQ,Electric Single,"509,414.15","6,962,432",141829095,153.09527830000002,-27.46160921,ELECTRIC
333,D0276,SANDGATE FORESHORES PARK,32532,BBQ,Electric Single,"506,866.77","6,978,851.55",141829095,153.0694043,-27.31338729,ELECTRIC
334,D0244,BOWDEN PARK,34705,BBQ,Electric Single,"504,920.73","6,972,116.16",141829095,153.04976230000003,-27.37420378,ELECTRIC
335,D1394,BARRETT STREET PARK (WATER RESERVE),160799,BBQ,Electric single,"503,176","6,978,060",141829095,153.03210269999997,-27.320547100000002,ELECTRIC
336,D0240,DONNA PHILP PARK,24160,BBQ,Electric Single,"506,448.84","6,974,640.42",141829095,153.0652024,-27.35140809,ELECTRIC
337,D0995,WYNNUM WADING POOL PARK,76105,BBQ,Electric single,"517,388","6,964,635",141829095,153.17594780000002,-27.44164201,ELECTRIC
338,D0217,ASPLEY REST PARK,14988,BBQ,Electric Single,"501,520.46","6,974,159.05",141829095,153.0153735,-27.35576834,ELECTRIC
339,D0798,WENDON WAY PARK,25539,BBQ,Electric Single,"498,543.59","6,973,559.52",141829095,152.9852733,-27.36118105,ELECTRIC
340,D0276,SANDGATE FORESHORES PARK,23570,BBQ,Electric Single,"506,406.6","6,981,156.95",141829095,153.0647412,-27.29257591,ELECTRIC
341,D0456,PLAISTED PLACE PARK,121979,BBQ,Electric single,"506,035","6,970,274",141829095,153.0610398,-27.39083051,ELECTRIC
342,D0174,NEAL MACROSSAN PLAYGROUND PARK,26117,BBQ,Electric Single,"501,018.16","6,962,388.73",141829095,153.01030459999998,-27.46203206,ELECTRIC
343,D1252,TINCHI TAMBA WETLANDS RESERVE,79531,BBQ,Electric Single,"503,451","6,980,419",141829095,153.0348758,-27.29924892,ELECTRIC
344,D0178,BOWMAN PARK,44722,BBQ,Electric Single,"497,836.08","6,962,721.27",141829095,152.9781,-27.45902855,ELECTRIC
345,D0989,LEACROFT ROAD PARK,79309,BBQ,electric single,"516,235.68","6,950,359.88",141829095,153.1644791,-27.57053067,ELECTRIC
346,D0194,CORBIE STREET PARK,22977,BBQ,Electric Single,"499,984.62","6,964,895.18",141829095,152.9998444,-27.43940417,ELECTRIC
347,D1638,CRIBB ROAD PARK,81809,BBQ,electric single,"511,803.03","6,955,060.63",141829095,153.11952730000002,-27.52813884,ELECTRIC
348,D1763,COLMSLIE BEACH RESERVE,25647,BBQ,Electric Single,"5,090,133","6,963,748",141829095,153.0910332,-21.24975114,ELECTRIC
349,D0275,DECKER PARK,3706,BBQ,Electric Single,"506,392.84","6,981,871.13",141829095,153.06459840000002,-27.45095493,ELECTRIC
350,D0317,NIXON PARK,6782,BBQ,Electric Single,"497,940.26","6,952,423.76",141829095,152.9791368,-27.55199404,ELECTRIC
351,D0317,NIXON PARK,6781,BBQ,Electric Single,"497,844.34","6,952,383.89",141829095,152.97816519999998,-27.55235383,ELECTRIC
352,D0228,7TH BRIGADE PARK,34355,BBQ,Electric single,"503,425.55","6,971,873.37",141829095,153.03464250000002,-27.37640029,ELECTRIC
353,D0228,7TH BRIGADE PARK,34356,BBQ,Electric single,"503,422.79","6,971,893.4",141829095,153.0346146,-27.37621946,ELECTRIC
354,D0228,7TH BRIGADE PARK,50598,BBQ,Electric single,"503,425.6","6,971,933.71",141829095,153.0346429,-27.37585553,ELECTRIC
355,D2022,BLUE RANGE DRIVE PARK,37635,BBQ,Electric Single,"503,544.01","6,946,868.56",141829095,153.03591369999998,-27.60214247,ELECTRIC
356,D0228,7TH BRIGADE PARK,26745,BBQ,Electric Single,"503,348.49","6,971,680",141829095,153.0338638,-27.37814625,ELECTRIC
357,D0408,GUYATT PARK,16986,BBQ,Electric Single,"500,171.08","6,958,986.24",141829095,153.0017319,-27.49275004,ELECTRIC
358,D0660,CANTERBURY PARK,14313,BBQ,Electric Single,"500,869","6,979,652",141829095,153.0087826,-27.30617763,ELECTRIC
359,D0995,WYNNUM WADING POOL PARK,76100,BBQ,Electric single,"517,414.18","6,964,665.77",141829095,153.1762123,-27.44136388,ELECTRIC
360,D1075,GUS DAVIES PARK,27171,BBQ,Electric Single,"502,021","6,979,575",141829095,153.0204256,-27.30687158,ELECTRIC
361,D1394,BARRETT STREET PARK (WATER RESERVE),77722,BBQ,Electric single,"503,176","6,978,083",141829095,153.03210269999997,-27.32033945,ELECTRIC
362,D1394,BARRETT STREET PARK (WATER RESERVE),77721,BBQ,Electric single,"503,178.61","6,978,113.85",141829095,153.032129,-27.32006092,ELECTRIC
363,D1234,HONEYSUCKLE WAY PARK,34399,BBQ,Electric Single,"505,313.37","6,943,496.18",141829095,153.05385859999998,-27.63258183,ELECTRIC
364,D1394,BARRETT STREET PARK (WATER RESERVE),77715,BBQ,Electric single,"503,197","6,978,059",141829095,153.03231499999998,-27.32055608,ELECTRIC
365,D1159,SOLAR PARK,3003,BBQ,Electric Single,"498,562.18","6,972,528.67",141829095,152.9854601,-27.37048771,ELECTRIC
366,D1252,TINCHI TAMBA WETLANDS RESERVE,25235,BBQ,Electric Single,"503,231.04","6,980,388.59",141829095,153.03265290000002,-27.299523999999998,ELECTRIC
367,D1394,BARRETT STREET PARK (WATER RESERVE),77706,BBQ,Electric single,"503,090","6,978,098",141829095,153.0312334,-27.32020422,ELECTRIC
368,D1394,BARRETT STREET PARK (WATER RESERVE),77704,BBQ,Electric single,"503,110.6","6,978,124.72",141829095,153.0314415,-27.31996294,ELECTRIC
369,D0554,ROSEBANK SQUARE,15684,BBQ,Electric Single,"504,239.91","6,952,031.65",141829095,153.0429475,-27.55552889,ELECTRIC
370,D0065,TINGALPA CREEK RESERVE,24311,BBQ,Electric Single,"518,140.12","6,957,976.12",141829095,153.1836581,-27.50174817,ELECTRIC
371,D0169,CROSBY PARK,5499,BBQ,Electric Single,"504,521.39","6,965,515.64",141829095,153.0457484,-27.43379513,ELECTRIC
372,D0205,ROY HARVEY PARK,161419,BBQ,Electric single,"500,707.77","6,968,107.87",141829095,153.0071599,-27.41039967,ELECTRIC
373,D1264,TUCKEROO PARK,141,BBQ,Electric Single,"510,139.44","6,973,547.04",141829095,153.1025261,-27.36125685,ELECTRIC
374,D3054,HEATHWOOD PARK,166589,BBQ,Electric single,"498,778.51","6,942,991.56",141829095,152.9876179,-27.63714733,ELECTRIC
375,D0840,JAGERA PARK,11100,BBQ,Electric Single,"508,632","6,947,894",141829095,153.08746609999997,-27.59286208,ELECTRIC
376,D0075,CAPTAIN BURKE PARK,19194,BBQ,Electric Single,"503,388","6,962,000",141829095,153.0342903,-27.46553767,ELECTRIC
377,D1533,BLISS STREET PARK (LOT 29),6147,BBQ,Electric single,"497,649","6,966,794",141829095,152.9762145,-27.42225952,ELECTRIC
378,D1534,BLISS STREET PARK (NO.39),6154,BBQ,Electric Single,"497,856","6,966,753",141829095,152.97830869999999,-27.42263001,ELECTRIC
379,D0172,ORIEL PARK,12257,BBQ,Electric Single,"505,726.49","6,965,974.4",141829095,153.0579397,-27.4296489,ELECTRIC
380,D0170,YOWOGGERA  PARK,34017,BBQ,Electric Single,"504,175","6,965,056",141829095,153.0422451,-27.43794588,ELECTRIC
381,D0509,BRADSHAW PARK,153577,BBQ,Electric single,"503,191.75","6,967,076.2",141829095,153.03229069999998,-27.419710100000003,ELECTRIC
382,D1264,TUCKEROO PARK,33168,BBQ,Electric Single,"510,153.86","6,973,367.16",141829095,153.10267340000001,-27.36288072,ELECTRIC
383,D1763,COLMSLIE BEACH RESERVE,102018,BBQ,electric single,"509,032","6,963,714",141829095,153.09140109999998,-27.45003791,ELECTRIC
384,D1979,KINTA STREET PARK,36807,BBQ,Electric Single,"510,143.84","6,947,659.12",141829095,153.1027872,-27.59497204,ELECTRIC
385,D1763,COLMSLIE BEACH RESERVE,101851,BBQ,electric single,"508,913","6,963,692",141829095,153.090197,-27.45023731,ELECTRIC
386,D0175,E. E. MCCASKIE OVAL,35431,BBQ,Electric Single,"501,257.19","6,963,260.19",141829095,153.0127229,-27.45416432,ELECTRIC
387,D1768,STREISAND DRIVE PARK,84584,BBQ,Electric single,"498,143","6,972,170",141829095,152.9812206,-27.37372532,ELECTRIC
388,D0127,SEDGLEY PARK,32622,BBQ,Electric Single,"500,465.7","6,966,091.98",141829095,153.0047118,-27.42859934,ELECTRIC
389,D1523,KING STREET PARK,27375,BBQ,Electric Single,"510,055.71","6,946,673.23",141829095,153.1019025,-27.60387312,ELECTRIC
390,D0995,WYNNUM WADING POOL PARK,45675,BBQ,Electric Single,"517,428","6,964,638",141829095,153.17635249999998,-27.44161441,ELECTRIC
391,D0706,DASH STREET PARK,33655,BBQ,Electric Single,"495,536.57","6,968,257.68",141829095,152.9548481,-27.40904005,ELECTRIC
392,D1551,SVOBODA PARK,35251,BBQ,Electric Single,"509,619.92","6,946,491.79",141829095,153.0974877,-27.60551429,ELECTRIC
393,D0975,FRED FRANCIS PARK,118849,BBQ,Electric single,"504,354","6,978,415",141829095,153.04400859999998,-27.31733885,ELECTRIC
394,D0564,C.J.GREENFIELD COMPLEX PARK,44044,BBQ,Electric Single,"496,629.07","6,949,375.38",141829095,152.96584719999998,-27.57951177,ELECTRIC
395,D0572,LES ATKINSON PARK,4173,BBQ,Electric Single,"505,118.76","6,948,967",141829095,153.0518627,-27.58319308,ELECTRIC
396,D1551,SVOBODA PARK,35250,BBQ,Electric Single,"509,681.28","6,946,528.65",141829095,153.09810919999998,-27.60518109,ELECTRIC
397,D1763,COLMSLIE BEACH RESERVE,102024,BBQ,electric single,"509,073","6,963,729",141829095,153.0918159,-27.44990222,ELECTRIC
398,D0545,TOOHEY FOREST PARK,34134,BBQ,Electric Single,"504,149","6,954,066",141829095,153.0420197,-27.53716329,ELECTRIC
399,D0487,MCCOOK PARK,23884,BBQ,Electric Single,"501,355.43","6,965,118.62",141829095,153.013715,-27.43738628,ELECTRIC
400,D0680,KANGAROO POINT CLIFFS PARK,118750,BBQ,Electric single,"503,296","6,960,433",141829095,153.0333634,-27.47968475,ELECTRIC
401,D0208,TERALBA PARK,34073,BBQ,Electric Single,"498,043.33","6,968,973.52",141829095,152.9802075,-27.4025833,ELECTRIC
402,D0680,KANGAROO POINT CLIFFS PARK,118889,BBQ,Electric single,"503,336","6,960,534",141829095,153.03376809999997,-27.47877283,ELECTRIC
403,D0858,MERRI MERRI PARK,16210,BBQ,Electric Single,"493,999.32","6,959,775.73",141829095,152.9392554,-27.48560931,ELECTRIC
404,D1356,CAROLE PARK COMMUNITY PARK,11640,BBQ,Electric Single,"494,049","6,945,296",141829095,152.93968700000002,-27.61633078,ELECTRIC
405,D0235,STUDLEY PARK,26110,BBQ,Electric Single,"504,311.03","6,970,353.46",141829095,153.04360280000003,-27.39011968,ELECTRIC
406,D0267,THE RAFTING GROUND PARK,21096,BBQ,Electric Single,"492,432.26","6,955,929.85",141829095,152.92336809999998,-27.52032185,ELECTRIC
407,D0680,KANGAROO POINT CLIFFS PARK,118749,BBQ,Electric single,"503,302.13","6,960,447.2",141829095,153.0334255,-27.47955654,ELECTRIC
408,D0054,LAVARACK PARK,35632,BBQ,Electric Single,"508,342.3","6,959,280.04",141829095,153.084452,-27.49007202,ELECTRIC
409,D0075,CAPTAIN BURKE PARK,118743,BBQ,Electric single,"503,601.42","6,962,029.08",141829095,153.0364503,-27.46527459,ELECTRIC
410,D1264,TUCKEROO PARK,147,BBQ,Electric Single,"510,459.62","6,974,660.98",141829095,153.105754,-27.35119765,ELECTRIC
411,D0730,BERYL ROBERTS PARK,42339,BBQ,Electric Single,"504,115.07","6,950,829.55",141829095,153.0416871,-27.56638168,ELECTRIC
412,D0228,7TH BRIGADE PARK,66643,BBQ,Electric single,"503,440.52","6,971,903.75",141829095,153.0347939,-27.37612598,ELECTRIC
413,D3054,HEATHWOOD PARK,166600,BBQ,Electric single,"498,718.21","6,942,971.65",141829095,152.98700669999997,-27.63732702,ELECTRIC
414,D1279,THE LAKE PARKLANDS,44323,BBQ,Electric Single,"496,745","6,944,711",141829095,152.9670092,-27.62162123,ELECTRIC
415,D1279,THE LAKE PARKLANDS,34066,BBQ,Electric Single,"496,572","6,944,310",141829095,152.96525459999998,-27.62524094,ELECTRIC
416,D0039,VIC LUCAS PARK,18833,BBQ,Electric Single,"505,087.71","6,964,446.39",141829095,153.05148300000002,-27.44344635,ELECTRIC
417,D0003,PRIMROSE PARK,33771,BBQ,Electric Single,"515,553.96","6,964,686.53",141829095,153.15738869999998,-27.44119899,ELECTRIC
418,D0398,SHAFTESBURY STREET PARK,36881,BBQ,Electric Single,"504,042.19","6,956,114.59",141829095,153.0409311,-27.51866912,ELECTRIC
419,D1886,KOOKABURRA PARK - WEST,28035,BBQ,Electric Single,"484,076.57","6,953,326.07",141829095,152.8387233,-27.54375609,ELECTRIC
420,D0095,NEW FARM PARK,145361,BBQ,ELECTRIC SINGLE,"505,301.62","6,961,511.95",141829095,153.0536604,-27.46993767,ELECTRIC
421,D1897,ILLAWONG RESERVE,28001,BBQ,Electric Single,"482,092.78","6,952,248.98",141829095,152.818615,-27.55345513,ELECTRIC
422,D1095,WILCANNIA PARK,11718,BBQ,Electric Single,"496,781.96","6,963,797.03",141829095,152.9674346,-27.44931449,ELECTRIC
423,D0635,MCPHERSON PARK,19467,BBQ,Electric Single - private,"504,205.91","6,977,889.03",141829095,153.0425136,-27.32208787,ELECTRIC
424,D2015,ROXWELL STREET PARK,44384,BBQ,Electric Single 0n tile bench,"494,680","6,944,424",141829095,152.9460783,-27.62420565,ELECTRIC
425,D0080,MERTHYR PARK,1148,BBQ,Electric Single barbecue,"504,225","6,960,981",141829095,153.0427652,-27.47473485,ELECTRIC
426,D0317,NIXON PARK,52201,BBQ,Electric Single Barbecue,"497,845.94","6,952,384.64",141829095,152.9781814,-27.55234706,ELECTRIC
427,D2007,CASCADE DRIVE PARK (NO.20),44361,BBQ,Electric Single Barbecue,"496,513","6,943,885",141829095,152.9646554,-27.629077600000002,ELECTRIC
428,D0159,GRINSTEAD PARK,25342,BBQ,Electric Single barbecue,"500,107.44","6,967,321.1",141829095,153.0010869,-27.41750286,ELECTRIC
429,D0392,THOMPSON ESTATE RESERVE,33374,BBQ,Electric Single barbecue,"504,100","6,957,425",141829095,153.041512,-27.50683866,ELECTRIC
430,D0095,NEW FARM PARK,7831,BBQ,Electric Single Barbecue,"505,164","6,961,373",141829095,153.0522681,-27.47119264,ELECTRIC
431,D0856,SURBITON COURT PARK,50059,BBQ,Electric single BBQ,"510,385.5","6,957,579.65",141829095,153.1051506,-27.50540894,ELECTRIC
432,D0856,SURBITON COURT PARK,50062,BBQ,Electric single BBQ,"510,393.46","6,957,641.34",141829095,153.1052307,-27.50485195,ELECTRIC
433,D1246,BREAKWATER PARK,76685,BBQ,Electric single BBQ,"517,219","6,965,249",141829095,153.174229,-27.43610097,ELECTRIC
434,D1242,GOWAN ROAD PARK,67101,BBQ,Electric single BBQ,"505,680.34","6,943,626.03",141829095,153.05757780000002,-27.63140808,ELECTRIC
435,D0759,SHOWGROUND PARK,52861,BBQ,Electric single burner,"508,426.89","6,973,133.25",141829095,153.08521230000002,-27.36500424,ELECTRIC
436,D1984,JEAYS STREET PARK,38057,BBQ,Electric Single octagonal,"503,583","6,963,857",141829095,153.0362585,-27.44877217,ELECTRIC
437,D0276,SANDGATE FORESHORES PARK,105932,BBQ,Electric single on exposed aggregate slab,"506,901.45","6,978,902.91",141829095,153.0697545,-27.31292343,ELECTRIC
438,D2008,CASCADE DRIVE PARK (NO.25),44371,BBQ,Electric Single on tile bench,"496,434","6,943,815",141829095,152.9638544,-27.62970934,ELECTRIC
439,D0284,SANDGATE SECOND LAGOON RESERVE,65938,BBQ,Electric single plate,"506,267.95","6,978,220.17",141829095,153.0633551,-27.31909038,ELECTRIC
440,D0631,KEPERRA PICNIC GROUND PARK,66765,BBQ,Electric single plate,"494,220","6,967,907",141829095,152.9415281,-27.41220107,ELECTRIC
441,D1582,MANLY ROAD PARK (NO.880),65901,BBQ,Electric single plate hexagonal bbq,"514,749","6,960,559",141829095,153.1492936,-27.47847118,ELECTRIC
442,D0016,RILATT PARK,66609,BBQ,Electric single plate stainless steel,"504,743.5","6,970,127.09",141829095,153.0479778,-27.39216193,ELECTRIC
443,D0260,FIG TREE POCKET RIVERSIDE RESERVE,66801,BBQ,Electric single plate stainless steel x2,"497,312.83","6,953,480.07",141829095,152.97278390000002,-27.54245669,ELECTRIC
444,D1582,MANLY ROAD PARK (NO.880),65905,BBQ,"Electric single plate, hexagonal","514,726","6,960,623",141829095,153.14906000000002,-27.47789364,ELECTRIC
445,D0680,KANGAROO POINT CLIFFS PARK,24655,BBQ,Electric Single rectangle shape,"503,327","6,960,423",141829095,153.0336773,-27.47977496,ELECTRIC
446,D0680,KANGAROO POINT CLIFFS PARK,118948,BBQ,Electric single rectangle shape,"503,429","6,960,663",141829095,153.03470910000001,-27.47760799,ELECTRIC
447,D0075,CAPTAIN BURKE PARK,118548,BBQ,Electric single rectangle shaped,"503,408.27","6,962,018.59",141829095,153.03449540000003,-27.46536979,ELECTRIC
448,D0680,KANGAROO POINT CLIFFS PARK,118445,BBQ,Electric single Rectangle shaped,"503,230.27","6,960,202.21",141829095,153.0326987,-27.48176848,ELECTRIC
449,D0680,KANGAROO POINT CLIFFS PARK,122391,BBQ,Electric single rectangle shaped,"503,388.93","6,960,559.83",141829095,153.0343038,-27.47853951,ELECTRIC
450,D0680,KANGAROO POINT CLIFFS PARK,118438,BBQ,Electric single Rectangle shaped,"503,319.41","6,960,404.45",141829095,153.03360049999998,-27.47994244,ELECTRIC
451,D0680,KANGAROO POINT CLIFFS PARK,118433,BBQ,Electric single Rectangle shaped,"503,369.88","6,960,514.42",141829095,153.0341111,-27.47894951,ELECTRIC
452,D0680,KANGAROO POINT CLIFFS PARK,122405,BBQ,Electric single rectangle shaped,"503,419.11","6,960,637.63",141829095,153.03460900000002,-27.47783705,ELECTRIC
453,D1939,MT CROSBY SPORTSGROUND,52081,BBQ,Electric single stainless steel,"479,828","6,953,798",141829095,152.7957007,-27.539439,ELECTRIC
454,D0015,KEATING PARK,130258,BBQ,Electric single stainless steel BBQ on concrete slab,"497,440.9","6,958,216.16",141829095,152.97409109999998,-27.49969989,ELECTRIC
455,D0288,MOORA PARK,115887,BBQ,Electric single. hexagon shape,"508,397.05","6,977,610.37",141829095,153.0848798,-27.32458435,ELECTRIC
456,D0013,KEONG PARK,124139,BBQ,electric single. on slab,"500,690.52","6,968,495.45",141829095,153.0069851,-27.40690058,ELECTRIC
457,D1939,MT CROSBY SPORTSGROUND,50960,BBQ,Electric Stainless steel,"479,875","6,953,821",141829095,152.7961771,-27.53923206,ELECTRIC
458,D0727,FRANK SLEEMAN PARK,66665,BBQ,Electric stainless steel 1 plate,"505,835.36","6,973,603.93",141829095,153.05900459999998,-27.36076842,ELECTRIC
459,D0438,NUDGEE BEACH RESERVE,72186,BBQ,Electric stainless steel double BBQ,"510,153","6,975,392",141829095,153.1026478,-27.34460022,ELECTRIC
460,D1515,AKUNA STREET PARK,66538,BBQ,Electric stainless steel one plate,"495,236.65","6,956,940.98",141829095,152.9517697,-27.51120619,ELECTRIC
461,D0438,NUDGEE BEACH RESERVE,72187,BBQ,Electric stainless steel single BBQ,"510,274","6,975,314",141829095,153.1038718,-27.34530351,ELECTRIC
462,D1230,BOYD TERRACE PARK,66739,BBQ,Electric stainless steel single burner,"491,552.66","6,957,666.94",141829095,152.9144733,-27.50463434,ELECTRIC
463,D0132,FERGUSON PARK (ENOGGERA),66181,BBQ,Electric stainless steel single plate,"498,649","6,966,976",141829095,152.9863319,-27.42061778,ELECTRIC
464,D2556,CHURCHILL CIRCUIT PARK,80879,BBQ,electric standalone,"507,866.19","6,971,359.85",141829095,153.079554,-27.38101803,ELECTRIC
465,D0806,CARINYA STREET PARK,119696,BBQ,"electric,","496,401.42","6,958,739.26",141829095,152.9635687,-27.49497501,ELECTRIC
466,D1953,ST ANDREWS AVENUE PARK,120493,BBQ,"electric, on stainless steel/ concrete bench top","497,016.35","6,943,769.41",141829095,152.9697571,-27.63012233,ELECTRIC
467,D0208,TERALBA PARK,182085,BBQ,Electrical BBQ,"498,156.06","6,968,997.4",141829095,152.9813479,-27.40236787,ELECTRIC
468,D2176,FORT ROAD BUSHLANDS,148245,BBQ,electrical bbq,"496,572.66","6,953,017.8",141829095,152.96528610000001,-27.54662835,ELECTRIC
469,D2176,FORT ROAD BUSHLANDS,148246,BBQ,electrical bbq,"496,569.03","6,952,997.95",141829095,152.9652492,-27.54680754,ELECTRIC
470,D0556,MT GRAVATT PARK,84171,BBQ,firewood,"507,743.92","6,952,092.9",141829095,153.0784405,-27.55496043,WOOD
471,D0208,TERALBA PARK,150919,BBQ,GAS,"498,087.14","6,968,967.47",141829095,152.9806507,-27.40263798,GAS
472,D2332,ENOGGERA RESERVOIR PARK,191536,BBQ,gas  portable,492728.89700000006,"6,964,606.806",141829095,152.926424,-27.441988199999997,GAS
473,D1864,LORIKEET PARK,187576,BBQ,household steel and fabrication electric,"493,536.2641","6,952,699.589",141829095,152.9345301,-27.54949003,WOOD
474,D0404,GIBSON PLACE PARK,16909,BBQ,old bbq base,"505,735.97","6,955,081.1",141829095,153.0580872,-27.52799328,WOOD
475,D0597,PRESTON ROAD PARK,176094,BBQ,"old bbq, only slab left","511,787.48","6,958,881.1",141829095,153.11933269999997,-27.49364809,WOOD
476,D0597,PRESTON ROAD PARK,176178,BBQ,old bbq.  woodfired,"511,707.75","6,959,004.45",141829095,153.1185243,-27.49253519,WOOD
477,D0597,PRESTON ROAD PARK,16408,BBQ,"old bbq. woodfire,","511,772.75","6,958,879.77",141829095,153.1191835,-27.49366023,WOOD
478,D0214,HUXTABLE PARK,190565,BBQ,old Wood Barbecue,"501,999.1142","6,970,761.503",141829095,153.0202188,-27.38644118,WOOD
479,D0461,TOOMBUL TERRACE PARK,5687,BBQ,Old Wood Barbecue type,"505,182.9419","6,968,593.274",141829095,153.05242900000002,-27.40600774,WOOD
480,D0428,WITTON ROAD PARK (NO.209),119734,BBQ,old Style,"497,002.4","6,957,593.42",141829095,152.96965,-27.50532105,WOOD
481,D0548,FAUNA PARADE PARK,10803,BBQ,old style,"501,542.1955",6952684.852000001,141829095,153.0156206,-27.54963762,WOOD
482,D0004,JACARANDA PARK,279,BBQ,old style,"500,474.5566","6,957,324.618",141829095,153.0048049,-27.50775101,WOOD
483,D0549,FRENEY STREET PARK,29780,BBQ,old style,"501,643.9822","6,952,354.07",141829095,153.016652,-27.55262377,WOOD
484,D0772,BRADY BUSHLAND PARK,124198,BBQ,"old Style, rusted 3*3 slab (Duplicate of 12998)","506,373.07","6,946,482.22",141829095,153.0645844,-27.605619899999997,WOOD
485,D2332,ENOGGERA RESERVOIR PARK,191535,BBQ,old type,"492,728.6743","6,964,607.825",141829095,152.9264217,-27.441978999999996,WOOD
486,D0594,PORTER'S PADDOCK PARK,176183,BBQ,old woodfired,"511,134.3","6,959,974.17",141829095,153.11271000000002,-27.48378543,WOOD
487,D0037,HAWTHORNE PARK,18764,BBQ,old woodfired,"506,277.17","6,962,137.71",141829095,153.0635312,-27.46428416,WOOD
488,D1548,COOCHIN PLACE PARK,27242,BBQ,old woodfired,"513,997.56","6,961,416.99",141829095,153.1416774,-27.47073323,WOOD
489,D0594,PORTER'S PADDOCK PARK,176115,BBQ,old woodfired bbq,"511,367.48","6,960,018.22",141829095,153.11507,-27.48338581,WOOD
490,D1268,ROBINSON PARK (TINGALPA),24344,BBQ,old woodfired bbq,"514,669.73","6,961,554.05",141829095,153.1484792,-27.46948877,WOOD
491,D1325,MACLEAY CRESCENT PARK,27508,BBQ,"old woodfired bbq, very rusted","514,267.84","6,961,257.64",141829095,153.14441499999998,-27.47216903,WOOD
492,D0006,KITCHENER PARK,358,BBQ,old woodfired- on ground,"516,539.25","6,964,384.44",141829095,153.1673628,-27.44391464,WOOD
493,D2593,LONE PINE PARK,135919,BBQ,PRIVATE BBQ - NOT COUNCIL OWNED,"497,021.95","6,954,685.81",141829095,152.96984080000001,-27.53157078,
494,D1165,ROBERT MITCHELL PARK,50730,BBQ,Rectangle,"504,139.9581","6,948,962.02",141829095,153.0419456,-27.58324139,ELECTRIC
495,D0558,WHIPBIRD PARK,15832,BBQ,Rectangle,"507,667.6622","6,950,188.08",141829095,153.0776801,-27.57215731,ELECTRIC
496,D0569,NORMA CROKER PARK,21545,BBQ,Rectangle electric,"501,432.9876",6948630.777000001,141829095,153.01451930000002,-27.58623737,ELECTRIC
497,D0840,JAGERA PARK,122569,BBQ,rectangle shaped (duplicates 11100),"508,632.28","6,947,893.69",141829095,153.087469,-27.59286488,ELECTRIC
498,D1760,GLASSHOUSE CRESCENT PARK,121178,BBQ,refer to pic (move to node 30544),"497,506.5","6,945,115.15",141829095,152.9747281,-27.61797427,
499,D1144,MAISIE DIXON PARK,183421,BBQ,Single,"509,862.9121","6,950,684.749",141829095,153.09991589999998,-27.56765924,
500,D0095,NEW FARM PARK,181081,BBQ,Single Electric,"505,187.36","6,961,650.02",141829095,153.0525033,-27.46869162,ELECTRIC
501,D0095,NEW FARM PARK,181086,BBQ,Single Electric,"505,141.42","6,961,673.8",141829095,153.05203830000002,-27.4684771,ELECTRIC
502,D0059,CHESTER PARK RESERVE,178892,BBQ,Single electric BBQ,"508,270.09","6,955,104.51",141829095,153.0837496,-27.52776885,ELECTRIC
503,D0375,FAIRFIELD PARK,33809,BBQ,SINGLE FLURO LIGHT,"502,583.84","6,957,784.49",141829095,153.02616030000002,-27.50359694,
504,D1763,COLMSLIE BEACH RESERVE,34183,BBQ,Solar Power Double,"509,049","6,963,619",141829095,153.09157380000002,-27.45089546,
505,D0578,BOLTON STREET PARK,26397,BBQ,Square blue base,"509,069.2826","6,949,531.034",141829095,153.09188469999998,-27.57808035,BASE ONLY
506,D1592,ANTRIM STREET PARK,24394,BBQ,square electric,"502,146.6242","6,947,776.571",141829095,153.0217515,-27.59394805,ELECTRIC
507,D0553,SALISBURY RECREATION RESERVE,67698,BBQ,Wood barbecue,"503,584.76","6,952,566.66",141829095,153.03630969999998,-27.55070078,WOOD
508,D1252,TINCHI TAMBA WETLANDS RESERVE,25244,BBQ,Wood barbecue,"503,245.62","6,980,364.82",141829095,153.0328003,-27.29973857,WOOD
509,D0448,NUDGEE WATERHOLE RESERVE,17420,BBQ,Wood Barbecue Dble,"509,476.8","6,972,125.82",141829095,153.0958368,-27.37409254,WOOD
510,D0448,NUDGEE WATERHOLE RESERVE,17421,BBQ,Wood Barbecue Single,"509,489.46","6,972,091.93",141829095,153.09596509999997,-27.37439842,WOOD
511,D0249,MT COOT-THA RESERVE,150060,BBQ,WOOD BBQ,"494,346.38","6,962,031.99",141829095,152.9427792,-27.46524134,WOOD
512,D0249,MT COOT-THA RESERVE,150059,BBQ,WOOD BBQ,"494,352.92","6,962,075.63",141829095,152.9428456,-27.46484738,WOOD
513,D0249,MT COOT-THA RESERVE,150072,BBQ,WOOD BBQ,"494,409.75","6,961,772.63",141829095,152.9434194,-27.4675831,WOOD
514,D1124,DURRINGTON PARK,123224,BBQ,Wood BBQ,"515,370.37","6,963,698.64",141829095,153.1555435,-27.45011974,WOOD
515,D0249,MT COOT-THA RESERVE,150085,BBQ,WOOD BBQ,"494,496.65","6,961,716.8",141829095,152.9442987,-27.46808748,WOOD
516,D0249,MT COOT-THA RESERVE,150089,BBQ,WOOD BBQ,"494,489.69","6,961,744.42",141829095,152.9442284,-27.467838099999998,WOOD
517,D0249,MT COOT-THA RESERVE,150119,BBQ,WOOD BBQ,"494,648.43","6,960,991.32",141829095,152.94583169999999,-27.47463771,WOOD
518,D0249,MT COOT-THA RESERVE,150136,BBQ,WOOD BBQ,"494,242.15","6,961,568.1",141829095,152.9417221,-27.46942889,WOOD
519,D1683,PRINCETON PLACE PARK,120545,BBQ,Wood bbq,"497,511.59","6,944,169.06",141829095,152.97477780000003,-27.62651538,WOOD
520,D0249,MT COOT-THA RESERVE,150426,BBQ,WOOD BBQ,"495,848.61","6,961,803.62",141829095,152.95798259999998,-27.46730847,WOOD
521,D0249,MT COOT-THA RESERVE,150628,BBQ,WOOD BBQ,"496,799.24","6,961,828.71",141829095,152.9676043,-27.46708453,WOOD
522,D0249,MT COOT-THA RESERVE,150514,BBQ,WOOD BBQ,"492,985.82","6,960,539.78",141829095,152.9290003,-27.47870664,WOOD
523,D0249,MT COOT-THA RESERVE,150509,BBQ,WOOD BBQ,"492,963.92","6,960,531.32",141829095,152.9287785,-27.478782899999995,WOOD
524,D0249,MT COOT-THA RESERVE,150474,BBQ,WOOD BBQ,"495,939.83","6,961,891.43",141829095,152.9589062,-27.466516,WOOD
525,D1247,KARAWATHA FOREST PARK,37437,BBQ,Wood BBQ,"509,194","6,944,456",141829095,153.093187,-27.62389594,WOOD
526,D0249,MT COOT-THA RESERVE,150473,BBQ,WOOD BBQ,"495,925.07","6,961,874.63",141829095,152.95875669999998,-27.46666763,WOOD
527,D0249,MT COOT-THA RESERVE,150427,BBQ,WOOD BBQ,"495,817.42","6,961,779.86",141829095,152.9576669,-27.46752288,WOOD
528,D0249,MT COOT-THA RESERVE,150419,BBQ,WOOD BBQ,"495,886.29","6,961,787.06",141829095,152.958364,-27.46745809,WOOD
529,D0249,MT COOT-THA RESERVE,150433,BBQ,WOOD BBQ,"495,767.12","6,961,843.31",141829095,152.95715800000002,-27.4669499,WOOD
530,D0249,MT COOT-THA RESERVE,150373,BBQ,WOOD BBQ,"496,436.34","6,961,934.12",141829095,152.9639316,-27.46613199,WOOD
531,D1247,KARAWATHA FOREST PARK,192658,BBQ,Wood BBQ,"509,198.8825","6,944,462.376",141829095,153.0932365,-27.62383835,WOOD
532,D0249,MT COOT-THA RESERVE,150404,BBQ,WOOD BBQ,"495,925.71","6,961,960.91",141829095,152.9587635,-27.46588869,WOOD
533,D0249,MT COOT-THA RESERVE,150365,BBQ,WOOD BBQ,"496,545.05","6,961,925.27",141829095,152.96503180000002,-27.46621217,WOOD
534,D0249,MT COOT-THA RESERVE,150381,BBQ,WOOD BBQ,"496,354.41","6,961,980.83",141829095,152.9631025,-27.46571007,WOOD
535,D0249,MT COOT-THA RESERVE,150383,BBQ,WOOD BBQ,"496,332.75","6,961,984.98",141829095,152.96288330000002,-27.46567255,WOOD
536,D0249,MT COOT-THA RESERVE,150411,BBQ,WOOD BBQ,"495,905.14","6,961,870.67",141829095,152.95855500000002,-27.46670332,WOOD
537,D0249,MT COOT-THA RESERVE,150430,BBQ,WOOD BBQ,"495,763.53","6,961,803.86",141829095,152.9571215,-27.46730604,WOOD
538,D0249,MT COOT-THA RESERVE,150129,BBQ,WOOD BBQ,"494,175.07","6,961,433.47",141829095,152.9410425,-27.47064404,WOOD
539,D1187,WALLAROO WAY COMMUNITY PARK,135138,BBQ,wood bbq Wood Barbecue,"498,297.93","6,946,346.81",141829095,152.9827511,-27.60685631,WOOD
540,D0435,BOORABBIN PICNIC GROUND,99213,BBQ,Wood bbq Wood Barbecue,"511,010.15","6,952,296.38",141829095,153.1115232,-27.55310083,WOOD
541,D0368,HEATH PARK,14199,BBQ,Wood BBQ Wood Barbecue,"505,071.94","6,960,480.95",141829095,153.05133999999998,-27.47924639,WOOD
542,D0443,DOWNFALL CREEK RESERVE,79197,BBQ,Wood BBQ Wood Barbecue,"505,684.08","6,971,192.24",141829095,153.0574862,-27.38254206,WOOD
543,D0227,MARCHANT PARK,153084,BBQ,Wood BBQ Wood Barbecue,"502,965.95","6,971,967.35",141829095,153.02999440000002,-27.3755529,WOOD
544,D0230,BRADBURY PARK,155917,BBQ,Wood BBQ Wood Barbecue,"502,694.75","6,969,576.93",141829095,153.02725709999999,-27.39713441,WOOD
545,D0995,WYNNUM WADING POOL PARK,9230,BBQ,Wood BBQ Wood Barbecue,"517,329","6,964,769",141829095,153.17534890000002,-27.44043301,WOOD
546,D0389,YERONGA MEMORIAL PARK,177592,BBQ,Wood BBQ Wood Barbecue,"502,236.35","6,955,831.84",141829095,153.0226457,-27.52122595,WOOD
547,D0161,DORRINGTON PARK,95087,BBQ,Wood bbq Wood Barbecue,"498,817.12","6,964,921.85",141829095,152.98803080000002,-27.43916288,WOOD
548,D0161,DORRINGTON PARK,95083,BBQ,Wood bbq Wood Barbecue,"498,788.41","6,964,921.16",141829095,152.9877403,-27.43916909,WOOD
549,D0305,SHERWOOD FOREST PARK,83989,BBQ,Wood bbq Wood Barbecue mounted on table,"497,448.97","6,954,900.71",141829095,152.9741658,-27.52963156,WOOD
550,D0249,MT COOT-THA RESERVE,136459,BBQ,WOOD BBQ Wood Barbecue ON CONCRETE BENCHTOP,"496,822.78","6,961,158.54",141829095,152.9678408,-27.47313487,WOOD
551,D0249,MT COOT-THA RESERVE,136453,BBQ,WOOD BBQ Wood Barbecue ON CONCRETE BENCHTOP,"497,019.81","6,961,624.09",141829095,152.9698362,-27.46893234,WOOD
552,D0249,MT COOT-THA RESERVE,136496,BBQ,WOOD BBQ Wood Barbecue ON CONCRETE BENCHTOP,"497,162.94","6,961,298.69",141829095,152.9712841,-27.47187036,WOOD
553,D0249,MT COOT-THA RESERVE,136497,BBQ,WOOD BBQ Wood Barbecue ON CONCRETE BENCHTOP,"497,138.58","6,961,284.43",141829095,152.9710376,-27.47199904,WOOD
554,D0249,MT COOT-THA RESERVE,136510,BBQ,WOOD BBQ Wood Barbecue ON CONCRETE BENCHTOP,"497,132.92","6,961,263.67",141829095,152.97098019999999,-27.47218645,WOOD
555,D0249,MT COOT-THA RESERVE,136544,BBQ,WOOD BBQ Wood Barbecue ON CONCRETE BENCHTOP,"496,917.27","6,961,671.86",141829095,152.96879850000002,-27.46850084,WOOD
556,D0249,MT COOT-THA RESERVE,136446,BBQ,Wood BBQ Wood Barbecue ON CONCRETE BENCHTOP,"497,012.98","6,961,727.77",141829095,152.96976740000002,-27.4679963,WOOD
557,D0249,MT COOT-THA RESERVE,136464,BBQ,WOOD BBQ Wood Barbecue ON CONCRETE BENCHTOP,"496,900.04","6,961,184.84",141829095,152.9686229,-27.47289762,WOOD
558,D0249,MT COOT-THA RESERVE,136355,BBQ,WOOD BBQ Wood Barbecue ON CONCRETE BENCHTOP,"496,581.36","6,961,043.6",141829095,152.9653969,-27.47417197,WOOD
559,D0249,MT COOT-THA RESERVE,136495,BBQ,WOOD BBQ Wood Barbecue ON CONCRETE BENCHTOP,"497,142.8","6,961,319.03",141829095,152.9710803,-27.47168668,WOOD
560,D0319,LAWSON STREET PARK,141143,BBQ,Wood bbq Wood Barbecue ON CONCRETE TABLE,"497,895.86","6,951,756.93",141829095,152.97868590000002,-27.55801403,WOOD
561,D0622,MARY CHAYTER PARK,79860,BBQ,Wood bbq Wood Barbecue stove mounted on concrete table,"503,347.1","6,955,423.86",141829095,153.0338946,-27.52490687,WOOD
562,D0678,COL BENNET PARK,119144,BBQ,Wood bbq old style on concrete/ block bench (duplicate of 20031),"502,700.09","6,945,359.75",141829095,153.0273651,-27.61576567,WOOD
563,D0968,JOE FOSTER PARK,123947,BBQ,"Wood BBQ old, rusted, on concrete and brick stand","506,876.46","6,958,887.65",141829095,153.0696151,-27.49362271,WOOD
564,D0284,SANDGATE SECOND LAGOON RESERVE,11058,BBQ,Wood BBQ on bench,"506,172","6,978,769",141829095,153.06238249999998,-27.31413588,WOOD
565,D0430,MOORE PARK,119774,BBQ,Wood bbq on block /concrete bench top,"496,451.37","6,958,209.57",141829095,152.96407280000003,-27.49975716,WOOD
566,D0416,ROBERTSON PARK,119574,BBQ,Wood bbq on block /concrete bench top,"498,900.47","6,957,889.89",141829095,152.9888678,-27.502647399999997,WOOD
567,D0806,CARINYA STREET PARK,119700,BBQ,Wood bbq on block /conerete bench top,"496,433.87","6,958,732.62",141829095,152.9638972,-27.49503504,WOOD
568,D1119,PIONEER CRESCENT PARK,120040,BBQ,Wood bbq on block/ concrete bench top,"487,349.56","6,951,315.78",141829095,152.8718519,-27.56193922,WOOD
569,D0416,ROBERTSON PARK,119563,BBQ,Wood bbq on Concret/block bench top,"499,013.69","6,957,914.55",141829095,152.9900141,-27.50242486,WOOD
570,D0663,BOOKER PLACE PARK,120046,BBQ,Wood bbq on concrete /block bench top,"489,494.71","6,951,379.74",141829095,152.8935826,-27.56138014,WOOD
571,D0148,FERNY GROVE PICNIC GROUND PARK,120924,BBQ,Wood bbq on concrete /block bench top,"493,925.3","6,969,031.07",141829095,152.9385524,-27.4020516,WOOD
572,D0416,ROBERTSON PARK,119566,BBQ,Wood bbq on concrete /block bench top,"498,982.79","6,957,887.8",141829095,152.98970119999998,-27.50266634,WOOD
573,D0802,GROVE PARK,119052,BBQ,Wood bbq on concrete /block bench top(duplicates 10015),"507,734.82","6,947,127.96",141829095,153.0783801,-27.59978318,WOOD
574,D0416,ROBERTSON PARK,119565,BBQ,Wood bbq on concrete/ bench top,"498,971.41","6,957,919.3",141829095,152.9895861,-27.50238195,WOOD
575,D1207,LEXUS STREET PARK,119057,BBQ,Wood bbq on concrete/ block bench (duplicates 12657),"507,384.7","6,947,049.96",141829095,153.07483269999997,-27.6004893,WOOD
576,D0806,CARINYA STREET PARK,119701,BBQ,Wood bbq on concrete/ block bench top,"496,433.92","6,958,704.57",141829095,152.9638976,-27.49528828,WOOD
577,D0457,PROGRESS PARK,121554,BBQ,wood bbq on concrete/ block bench top,"507,699.84","6,970,322.06",141829095,153.0778782,-27.39038824,WOOD
578,D0663,BOOKER PLACE PARK,120044,BBQ,Wood bbq on concrete/ block bench top,"489,499.3","6,951,352.19",141829095,152.8936289,-27.56162889,WOOD
579,D1090,FIDDLEWOOD CRESCENT PARK,119944,BBQ,Wood bbq on concrete/ block bench top,"488,076.44","6,950,770.87",141829095,152.8792097,-27.56686518,WOOD
580,D0430,MOORE PARK,119710,BBQ,Wood bbq on Stone /concrete bench top,"496,418.88","6,958,265.43",141829095,152.963744,-27.49925277,WOOD
581,D0430,MOORE PARK,119776,BBQ,Wood bbq on stone/ concrete bench top,"496,561.38","6,958,341.46",141829095,152.96518700000001,-27.49856674,WOOD
582,D1160,GARRETT PARK,122581,BBQ,Wood bbq oven mounted with rectangle concrete table,"508,092.71","6,948,219.35",141829095,153.08199950000002,-27.58992821,WOOD
583,D1759,REGENTS CIRCUIT PARK,120446,BBQ,Wood bbq rusted,"495,736.34","6,943,883.77",141829095,152.9567831,-27.62908648,WOOD
584,D0106,TARANA STREET PARK,123938,BBQ,"Wood BBQ Standalone, rusted","507,235.8","6,958,731.99",141829095,153.0732538,-27.49502613,WOOD
585,D0430,MOORE PARK,119714,BBQ,Wood bbq. on concrete /block bench top,"496,504.37","6,958,324.7",141829095,152.96460969999998,-27.49871791,WOOD
586,D1048,FAVERSHAM STREET PARK,4428,BBQ,Wood Wood Barbecue,"503,828.17","6,958,591.47",141829095,153.0387561,-27.49630862,WOOD
587,D0215,WHITES ROAD PARK,14947,BBQ,WOOD Wood Barbecue,"500,873.77","6,971,202.71",141829095,153.0088369,-27.382459100000002,WOOD
588,D0345,LYONS PLAYGROUND PARK,983,BBQ,WOOD Wood Barbecue ON BLOCKS,"501,221.96","6,959,390.8",141829095,153.0123702,-27.48909715,WOOD
589,D0456,PLAISTED PLACE PARK,121978,BBQ,wood Wood Barbecue with stone and concrete base,"506,035.57","6,970,266",141829095,153.0610456,-27.39090273,WOOD
590,D0249,MT COOT-THA RESERVE,136472,BBQ,WOOD Wood Barbecue ON CONCRETE LONG BENCHTOP,"496,985.48","6,961,226.53",141829095,152.9694878,-27.47252143,WOOD
591,D1810,PACIFIC PARADE PARK,79544,BBQ,Wood Wood Barbecue standalone,"497,976.19","6,944,669.05",141829095,152.9794877,-27.62200235,WOOD
592,D1810,PACIFIC PARADE PARK,79541,BBQ,Wood Wood Barbecue standalone,"497,809.04","6,944,246.18",141829095,152.9777928,-27.62581967,WOOD
593,D1810,PACIFIC PARADE PARK,79538,BBQ,Wood Wood Barbecue standalone,"497,771.16","6,943,991.85",141829095,152.9774084,-27.62811565,WOOD
594,D0405,ROTARY INTERNATIONAL  PRESIDENTS PARK,16931,BBQ,Wood Dble,"501,005.44","6,959,072.52",141829095,153.0101786,-27.49197075,WOOD
595,D1886,KOOKABURRA PARK - WEST,28036,BBQ,Wood Dble,"484,153.03","6,953,724.79",141829095,152.8395029,-27.540157399999995,WOOD
596,D0161,DORRINGTON PARK,5264,BBQ,Wood Dble,"498,598.22","6,964,897.49",141829095,152.9858158,-27.439382600000002,WOOD
597,D1018,FIG TREE COMMON PARK,10871,BBQ,Wood Dble,"495,501.9","6,955,428.2",141829095,152.95444980000002,-27.52486436,WOOD
598,D0118,MAJESTIC PARK,22089,BBQ,Wood Dble,"506,602.84","6,957,213.56",141829095,153.0668542,-27.50873765,WOOD
599,D0836,MIKADO STREET PARK,3989,BBQ,Wood Dble,"505,268.31","6,965,525.39",141829095,153.05330580000003,-27.43370443,WOOD
600,D0911,ANNA SMITH OBE QUOTA PARK,7360,BBQ,Wood Dble,"510,587.36","6,957,524.23",141829095,153.1071949,-27.50590771,WOOD
601,D1059,WILHELMINE KRUGER PARK,11507,BBQ,Wood Dble,"508,461.16","6,972,001.24",141829095,153.0855667,-27.37522394,WOOD
602,D0725,WISHART COMMUNITY PARK,5564,BBQ,Wood Dble,"510,202.76","6,951,483.52",141829095,153.1033519,-27.56044554,WOOD
603,D0327,DUCIE STREET PARK,13580,BBQ,Wood Dble,"495,066","6,950,246",141829095,152.9500145,-27.57164715,WOOD
604,D0162,FRANK WATERS PARK,5319,BBQ,Wood Dble,"499,135.08","6,965,200.17",141829095,152.9912483,-27.43665044,WOOD
605,D0249,MT COOT-THA RESERVE,10169,BBQ,Wood Dble,"494,492","6,961,741",141829095,152.9442517,-27.46786899,WOOD
606,D0242,JOSEPH LEE PARK,27597,BBQ,Wood Dble,"504,722.38","6,974,451.23",141829095,153.04774740000002,-27.35312318,WOOD
607,D0249,MT COOT-THA RESERVE,10171,BBQ,Wood Dble,"494,622","6,961,022",141829095,152.94556430000003,-27.47436063,WOOD
608,D1013,PRESIDENTIAL PARK,10707,BBQ,Wood Dble,"507,096.84","6,945,601.31",141829095,153.07192419999998,-27.61356897,WOOD
609,D0249,MT COOT-THA RESERVE,10172,BBQ,Wood Dble,"494,494","6,961,731",141829095,152.94427190000002,-27.46795927,WOOD
610,D0227,MARCHANT PARK,20543,BBQ,Wood Dble,"502,926.75","6,971,706.51",141829095,153.0295986,-27.37790788,WOOD
611,D0276,SANDGATE FORESHORES PARK,3757,BBQ,Wood Dble,"508,626.77","6,977,105.35",141829095,153.0872054,-27.32914232,WOOD
612,D0363,THE COMMON PARK,39561,BBQ,Wood Dble,"505,072.52","6,959,416.88",141829095,153.0513504,-27.48885278,WOOD
613,D0743,CREEKSIDE STREET PARK,17691,BBQ,Wood Dble,"491,771","6,957,829",141829095,152.9166851,-27.50317262,WOOD
614,D0148,FERNY GROVE PICNIC GROUND PARK,17210,BBQ,Wood Dble,"493,925","6,969,031",141829095,152.9385494,-27.40205224,WOOD
615,D0355,DUTTON PARK,7374,BBQ,Wood Dble,"502,433.18","6,958,530.28",141829095,153.0246335,-27.49686426,WOOD
616,D0584,CORMORANT STREET PARK,11399,BBQ,Wood Dble,"497,086.75","6,947,225.64",141829095,152.970479,-27.59892033,WOOD
617,D0273,BROOKFIELD RECREATION RESERVE,3666,BBQ,Wood Dble,"491,246.28","6,959,023.73",141829095,152.9113811,-27.49238338,WOOD
618,D0249,MT COOT-THA RESERVE,44876,BBQ,Wood Dble,"494,210.72","6,961,443.77",141829095,152.94140339999998,-27.47055121,WOOD
619,D0864,MARMINDE STREET PARK,21666,BBQ,Wood Dble,"494,855.01","6,958,970.94",141829095,152.9479141,-27.49287843,WOOD
620,D0678,COL BENNET PARK,20031,BBQ,Wood Dble,"502,700","6,945,360",141829095,153.0273642,-27.61576341,WOOD
621,D0214,HUXTABLE PARK,14891,BBQ,Wood Dble,"501,412","6,970,589",141829095,153.014281,-27.38799928,WOOD
622,D1119,PIONEER CRESCENT PARK,2245,BBQ,Wood Dble,"487,350","6,951,316",141829095,152.87185630000002,-27.56193724,WOOD
623,D0305,SHERWOOD FOREST PARK,607,BBQ,Wood Dble,"497,336.58","6,954,851.79",141829095,152.9730275,-27.53007298,WOOD
624,D0261,KINGFISHER PARK,20978,BBQ,Wood Dble,"493,268.81","6,955,474.38",141829095,152.9318366,-27.52443821,WOOD
625,D0958,TWILIGHT STREET PARK,8959,BBQ,Wood Dble,"493,470","6,955,710.19",141829095,152.9338752,-27.52231032,WOOD
626,D0013,KEONG PARK,6388,BBQ,Wood Dble,"500,598.37","6,968,392.94",141829095,153.006053,-27.40782609,WOOD
627,D0530,LOTA CAMPING RESERVE,3430,BBQ,Wood Dble,"518,993.82","6,961,887.24",141829095,153.1922399,-27.46642721,WOOD
628,D0424,TARINGA PLAYGROUND PARK,5097,BBQ,Wood Dble,"497,995.4","6,959,200.2",141829095,152.9797066,-27.49081695,WOOD
629,D0863,BREENE COURT PARK,21647,BBQ,Wood Dble,"511,059.66","6,956,978.52",141829095,153.11198180000002,-27.51083057,WOOD
630,D0435,BOORABBIN PICNIC GROUND,12115,BBQ,Wood Dble,"511,003.95","6,952,277.93",141829095,153.1114606,-27.55326745,WOOD
631,D0466,NORMAN BUCHAN PARK,5875,BBQ,Wood Dble,"498,976.48","6,962,006.29",141829095,152.98964080000002,-27.46548472,WOOD
632,D0409,ACACIA PARK,23625,BBQ,Wood Dble,"500,821.73","6,958,295.86",141829095,153.0083193,-27.49898252,WOOD
633,D0260,FIG TREE POCKET RIVERSIDE RESERVE,34987,BBQ,Wood Dble,"497,325.3","6,953,511",141829095,152.97291030000002,-27.54217748,WOOD
634,D0402,THORNYCROFT STREET PARK,16881,BBQ,Wood Dble,"504,306.98","6,954,596.6",141829095,153.04361780000002,-27.53237259,WOOD
635,D0249,MT COOT-THA RESERVE,10175,BBQ,Wood Double,"497,153","6,961,309",141829095,152.9711836,-27.47177725,WOOD
636,D0271,MOGGILL FERRY RESERVE,181025,BBQ,Wood Fire,"485,995.97","6,947,519.78",141829095,152.858096,-27.5961955,WOOD
637,D1901,KUPI PARK,80119,BBQ,wood fire,"482,525.27","6,953,725.76",141829095,152.82301719999998,-27.54012863,WOOD
638,D1886,KOOKABURRA PARK - WEST,86359,BBQ,wood fire,"484,219.05","6,953,659.99",141829095,152.8401707,-27.54074318,WOOD
639,D1252,TINCHI TAMBA WETLANDS RESERVE,77611,BBQ,wood fire concrete masonry,"503,256.74","6,980,367.35",141829095,153.0329127,-27.2997157,WOOD
640,D1252,TINCHI TAMBA WETLANDS RESERVE,77599,BBQ,wood fire on masonry blocks,"503,321.37","6,980,380.98",141829095,153.03356580000002,-27.29959249,WOOD
641,D0974,VALARIA AVENUE PARK,81224,BBQ,wood fired,"507,798.56","6,959,785.09",141829095,153.07894430000002,-27.48551568,WOOD
642,D0040,KIANAWAH PARK,162598,BBQ,wood fired,"512,448.26","6,960,866.22",141829095,153.1260018,-27.47572064,WOOD
643,D0040,KIANAWAH PARK,813,BBQ,wood fired,"512,263.1","6,960,902.94",141829095,153.12412719999998,-27.47539081,WOOD
644,D0594,PORTER'S PADDOCK PARK,38691,BBQ,Wood fired,"511,144.44","6,960,102.68",141829095,153.1128115,-27.48262516,WOOD
645,D0434,BROADWATER PICNIC GROUND PARK,81757,BBQ,wood fired,"511,081.73","6,953,277.92",141829095,153.1122392,-27.54423903,WOOD
646,D0594,PORTER'S PADDOCK PARK,176129,BBQ,Wood fired,"511,331.81","6,960,143.56",141829095,153.11470780000002,-27.48225455,WOOD
647,D0594,PORTER'S PADDOCK PARK,16358,BBQ,Wood fired,"511,213.31","6,960,126.56",141829095,153.1135084,-27.48240901,WOOD
648,D0661,TILLACK PARK,102831,BBQ,wood fired,"510,046.79","6,955,673.21",141829095,153.1017371,-27.52262268,WOOD
649,D0067,BELMONT RECREATION RESERVE,97676,BBQ,wood fired,"509,867.88","6,958,487.6",141829095,153.09990249999998,-27.49721589,WOOD
650,D0594,PORTER'S PADDOCK PARK,16359,BBQ,Wood fired,"511,172.34","6,960,085.97",141829095,153.11309409999998,-27.48277579,WOOD
651,D0160,WALTON BRIDGE RESERVE,88818,BBQ,wood fired Wood Barbecue,"495,572.18","6,964,301.83",141829095,152.9551939,-27.44475375,WOOD
652,D1316,FREE STREET PARK,80872,BBQ,wood fired Wood Barbecue,"500,273.04","6,964,343.6",141829095,153.0027629,-27.44438383,WOOD
653,D1252,TINCHI TAMBA WETLANDS RESERVE,77609,BBQ,wood fired on masonry block,"503,263.07","6,980,368.2",141829095,153.0329767,-27.29970801,WOOD
654,D1252,TINCHI TAMBA WETLANDS RESERVE,77607,BBQ,wood fired on masonry blocks,"503,282.66","6,980,353.33",141829095,153.0331747,-27.29984222,WOOD
655,D0631,KEPERRA PICNIC GROUND PARK,124285,BBQ,wood fired. cooking plate rusted,"493,879.8","6,968,396.38",141829095,152.938089,-27.40778143,WOOD
656,D1145,KERRY ROAD PARK,23782,BBQ,Wood Single,"502,021","6,950,482",141829095,153.020474,-27.56952406,WOOD
657,D1247,KARAWATHA FOREST PARK,138076,BBQ,Wood single,"509,193","6,944,471",141829095,153.0931768,-27.62376053,WOOD
658,D0854,FRINTON STREET PARK,16062,BBQ,Wood Single,"509,694.08","6,952,402.24",141829095,153.0981917,-27.552155199999998,WOOD
659,D1242,GOWAN ROAD PARK,13043,BBQ,Wood Single,"505,599.93","6,943,663.82",141829095,153.0567625,-27.63106725,WOOD
660,D1451,PEDEN COURT PARK,25383,BBQ,Wood Single,"504,727.85","6,945,071.23",141829095,153.04791740000002,-27.61836479,WOOD
661,D1073,REGENCY PLACE PARK (NO.16),23775,BBQ,Wood Single,"507,404.35","6,945,240.72",141829095,153.075043,-27.61682266,WOOD
662,D1123,MINDONA ROTARY PARK,8585,BBQ,Wood Single,"510,255.31","6,951,974.52",141829095,153.1038801,-27.55601246,WOOD
663,D0750,FLAMETREE STREET PARK,22963,BBQ,Wood Single,"500,198.07","6,974,926.26",141829095,153.0020026,-27.34884269,WOOD
664,D1437,RAINBOW LORIKEET PARK,14679,BBQ,Wood Single,"503,193.95","6,972,659.63",141829095,153.0322983,-27.36930241,WOOD
665,D0249,MT COOT-THA RESERVE,136477,BBQ,Wood single,"496,832","6,961,861",141829095,152.96793590000001,-27.466793100000004,WOOD
666,D1733,GLORIOUS WAY PARK,27723,BBQ,Wood Single,"497,475","6,945,287",141829095,152.97440930000002,-27.61642278,WOOD
667,D0438,NUDGEE BEACH RESERVE,12145,BBQ,Wood Single,"509,885","6,975,572",141829095,153.0999369,-27.34297712,WOOD
668,D0443,DOWNFALL CREEK RESERVE,17346,BBQ,Wood Single,"505,900.55","6,971,108.33",141829095,153.0596759,-27.38329869,WOOD
669,D0443,DOWNFALL CREEK RESERVE,17340,BBQ,Wood Single,"505,618.5","6,971,215.13",141829095,153.05682290000001,-27.38233568,WOOD
670,D0476,DUNMORE PARK,24558,BBQ,Wood Single,"499,881.68","6,960,958.5",141829095,152.9988024,-27.47494454,WOOD
671,D0281,SANDGATE THIRD LAGOON RESERVE,78776,BBQ,Wood single,"505,392.01","6,979,277.11",141829095,153.0544966,-27.30955186,WOOD
672,D0447,NICHOLSON PLACE PARK,17409,BBQ,Wood Single,"506,505","6,970,596",141829095,153.0657918,-27.38792131,WOOD
673,D1615,GRANDVIEW PLACE PARK,28830,BBQ,Wood Single,"512,136.02","6,956,322.3",141829095,153.1228868,-27.51674567,WOOD
674,D1044,SETTLERS PARK,36002,BBQ,Wood Single,"494,327.3","6,952,330.77",141829095,152.9425406,-27.55282323,WOOD
675,D0229,JOHN PATTERSON PARK,20726,BBQ,Wood Single,"502,735.78","6,970,569.15",141829095,153.0276698,-27.38817648,WOOD
676,D1894,PLATYPUS PARK,28095,BBQ,Wood Single,"482,021.7","6,955,496.4",141829095,152.81794340000002,-27.52413695,WOOD
677,D0139,MCCONAGHY STREET PARK (NOS.171-235),35359,BBQ,Wood Single,"497,798.22","6,969,016.48",141829095,152.9777282,-27.40219508,WOOD
678,D0230,BRADBURY PARK,3234,BBQ,Wood Single,"502,719.29","6,969,621.57",141829095,153.02750519999998,-27.39673135,WOOD
679,D0608,BONEMILL ROAD PARK,26066,BBQ,Wood Single,"507,453.2","6,948,541.11",141829095,153.0755176,-27.58702709,WOOD
680,D1207,LEXUS STREET PARK,12657,BBQ,Wood Single,"507,385","6,947,050",141829095,153.0748358,-27.60048894,WOOD
681,D0227,MARCHANT PARK,41675,BBQ,Wood Single,"503,126.39","6,972,095.34",141829095,153.0316166,-27.37439704,WOOD
682,D0549,FRENEY STREET PARK,42255,BBQ,Wood Single,"501,642","6,952,350",141829095,153.01663200000002,-27.55266051,WOOD
683,D1085,ROSEMOUNT PARK,4588,BBQ,Wood Single,"494,990","6,952,837",141829095,152.9492553,-27.54825566,WOOD
684,D1090,FIDDLEWOOD CRESCENT PARK,11684,BBQ,Wood Single,"488,076","6,950,771",141829095,152.8792052,-27.566864000000002,WOOD
685,D0241,VICTOR GRENNING PARK,9760,BBQ,Wood Single,"504,273.76","6,974,144.11",141829095,153.0432125,-27.35589738,WOOD
686,D0458,MYRTLETOWN RESERVE,24321,BBQ,Wood Single,"514,004.49","6,970,230.67",141829095,153.141646,-27.39116315,WOOD
687,D0434,BROADWATER PICNIC GROUND PARK,12076,BBQ,Wood Single,"511,051.01","6,953,219.79",141829095,153.1119286,-27.54476407,WOOD
688,D0772,BRADY BUSHLAND PARK,12998,BBQ,Wood Single,"506,373","6,946,482",141829095,153.0645837,-27.60562189,WOOD
689,D0434,BROADWATER PICNIC GROUND PARK,29108,BBQ,Wood Single,"511,031.49","6,953,366.92",141829095,153.1117296,-27.54343596,WOOD
690,D0432,ABBEVILLE STREET PARK,12048,BBQ,Wood Single,"508,724.08","6,953,226.06",141829095,153.0883606,-27.54472445,WOOD
691,D0609,FORBES PARK,928,BBQ,Wood Single,"496,971.14","6,948,639.79",141829095,152.9693111,-27.58615337,WOOD
692,D0067,BELMONT RECREATION RESERVE,38605,BBQ,Wood Single,"509,865.94","6,958,462.84",141829095,153.099883,-27.49743944,WOOD
693,D0877,ARCHER PARADE PARK,41509,BBQ,Wood Single,"499,252","6,952,609",141829095,152.9924236,-27.55032307,WOOD
694,D0118,MAJESTIC PARK,22090,BBQ,Wood Single,"506,607.81","6,957,275.78",141829095,153.0669041,-27.50817591,WOOD
695,D0067,BELMONT RECREATION RESERVE,38611,BBQ,Wood Single,"509,505.08","6,958,682.95",141829095,153.096228,-27.49545487,WOOD
696,D0490,DAVIDSON STREET PARK,23196,BBQ,Wood Single,"500,404.88","6,964,785.76",141829095,153.0040969,-27.44039196,WOOD
697,D0046,WILSON PARK,842,BBQ,Wood Single,"505,679","6,960,725",141829095,153.05748380000003,-27.47704071,WOOD
698,D0698,TARRAGINDI ROAD PARK,9117,BBQ,Wood Single,"503,350.85","6,954,929.7",141829095,153.03393390000002,-27.529368100000003,WOOD
699,D0055,GARTH WEBB PARK,26055,BBQ,Wood Single,"508,503.82","6,959,470.9",141829095,153.0860858,-27.48834794,WOOD
700,D0202,GORDON PARK PLAYGROUND PARK,23608,BBQ,Wood Single,"502,740.34","6,967,669.61",141829095,153.0277225,-27.41435374,WOOD
701,D0175,E. E. MCCASKIE OVAL,12424,BBQ,Wood Single,"501,273.77","6,963,335.85",141829095,153.0128906,-27.45348124,WOOD
702,D1343,SPRINGVALE PLACE PARK,24060,BBQ,Wood Single,"510,183.13","6,959,339.45",141829095,153.1030869,-27.48952311,WOOD
703,D0420,SIR JOHN CHANDLER PARK,4969,BBQ,Wood Single,"500,865","6,956,026",141829095,153.008759,-27.51947465,WOOD
704,D1254,SETTLERS VILLAGE PARK,35333,BBQ,Wood Single,"497,108","6,945,385",141829095,152.97069,-27.61553732,WOOD
705,D1283,MARKHAM STREET PARK,26945,BBQ,Wood Single,"494,301","6,949,977",141829095,152.9422631,-27.57407263,WOOD
706,D0134,WILLMINGTON PARK,28922,BBQ,Wood Single,"499,306.76","6,966,249.26",141829095,152.9929861,-27.42717931,WOOD
707,D0160,WALTON BRIDGE RESERVE,44667,BBQ,Wood Single,"495,480.54","6,964,310.86",141829095,152.95426659999998,-27.44467193,WOOD
708,D0743,CREEKSIDE STREET PARK,26876,BBQ,Wood Single,"491,964","6,957,774",141829095,152.91863869999997,-27.50367031,WOOD
709,D0272,DEERHURST ROAD PARK,3660,BBQ,Wood Single,"491,941","6,958,702",141829095,152.91841200000002,-27.49529224,WOOD
710,D0212,ALDREN STREET PARK,14839,BBQ,Wood Single,"501,171.55","6,969,721.14",141829095,153.01184990000002,-27.39583463,WOOD
711,D0236,FRANK ROBERTS PARK,3362,BBQ,Wood Single,"505,040.19","6,969,809.17",141829095,153.05097990000002,-27.39503108,WOOD
712,D0016,RILATT PARK,26101,BBQ,Wood Single,"504,744.19","6,970,128.47",141829095,153.04798469999997,-27.39214947,WOOD
713,D0551,BILL MOORE PARK,24323,BBQ,Wood Single,"502,873.82","6,952,842.62",141829095,153.029108,-27.54821114,WOOD
714,D0117,LANGLANDS PARK,22034,BBQ,Wood Single,"504,762.3","6,958,650.27",141829095,153.04821289999998,-27.49577482,WOOD
715,D0281,SANDGATE THIRD LAGOON RESERVE,10917,BBQ,Wood Single,"505,502.36","6,979,210.09",141829095,153.05561219999998,-27.31015649,WOOD
716,D0723,CARINDALE REC RESERVE,5427,BBQ,Wood Single,"510,725.56","6,958,512.91",141829095,153.1085854,-27.49698089,WOOD
717,D0408,GUYATT PARK,16989,BBQ,Wood Single,"500,129.8","6,958,934.74",141829095,153.00131399999998,-27.49321499,WOOD
718,D0861,BILL LAMOND PARK,21611,BBQ,Wood Single,"518,281.82","6,961,291.24",141829095,153.1850427,-27.47181763,WOOD
719,D0249,MT COOT-THA RESERVE,44875,BBQ,Wood Single,"494,250.01","6,961,524.39",141829095,152.9418014,-27.46982354,WOOD
720,D0879,MEADOWBANK STREET PARK,17897,BBQ,Wood Single,"510,654.59","6,956,754.66",141829095,153.1078824,-27.51285481,WOOD
721,D0880,WINSTANLEY STREET PARK,11522,BBQ,Wood Single,"510,717.64","6,957,024.47",141829095,153.1085184,-27.51041849,WOOD
722,D0661,TILLACK PARK,14362,BBQ,Wood Single,"510,223.4","6,955,937.52",141829095,153.1035233,-27.52023519,WOOD
723,D0638,KEATLEY STREET PARK,19542,BBQ,Wood Single,"488,399.48","6,951,255.85",141829095,152.8824869,-27.56248966,WOOD
724,D0685,WALLY TATE PARK,2854,BBQ,Wood Single,"509,156.7","6,946,620.81",141829095,153.0927925,-27.60435275,WOOD
725,D0530,LOTA CAMPING RESERVE,3431,BBQ,Wood Single,"518,990.22","6,961,970.33",141829095,153.1922022,-27.46567713,WOOD
726,D0283,DEAGON SPORTSGROUND PARK,38190,BBQ,Wood Single,"505,520.15","6,978,081.16",141829095,153.05579709999998,-27.32034861,WOOD
727,D0603,LEICESTER STREET PARK,860,BBQ,Wood Single,"506,636.08","6,958,536.87",141829095,153.0671835,-27.49679073,WOOD
728,D1201,BENJAMINA PLACE PARK,12562,BBQ,Wood Single,"494,197.61","6,963,342.33",141829095,152.94127980000002,-27.45341096,WOOD
729,D0481,OAKMAN PARK,17984,BBQ,Wood Single,"498,648.32","6,959,300.78",141829095,152.98631650000002,-27.48990973,WOOD
730,D0183,FLETCHER PARADE PARK (NOS.161-231),17537,BBQ,Wood Single,"498,114.21","6,963,554.41",141829095,152.98091609999997,-27.45150737,WOOD
731,D1710,ST JOHNS AVENUE PARK (NOS.7-27),27649,BBQ,Wood Single,"497,509.36","6,964,431.72",141829095,152.9747969,-27.44358602,WOOD
732,D0160,WALTON BRIDGE RESERVE,5160,BBQ,Wood Single,"495,558.66","6,964,283.7",141829095,152.9550571,-27.44491738,WOOD
733,D0355,DUTTON PARK,39198,BBQ,Wood Single,"502,412.9","6,958,515.66",141829095,153.0244282,-27.49699629,WOOD
734,D0428,WITTON ROAD PARK (NO.209),5118,BBQ,Wood Single,"496,999.14","6,957,824.36",141829095,152.9696176,-27.50323613,WOOD
735,D0249,MT COOT-THA RESERVE,10173,BBQ,Wood Single,"494,413","6,962,051",141829095,152.9434536,-27.46506999,WOOD
736,D0920,GREVILLEA PARK,14007,BBQ,Wood Single,"509,379.04","6,954,212.31",141829095,153.0949866,-27.53581632,WOOD
737,D0403,MOORBELL STREET PARK,16891,BBQ,Wood Single,"505,130.95","6,954,459.55",141829095,153.0519629,-27.533607,WOOD
738,D0802,GROVE PARK,10015,BBQ,Wood Single,"507,735","6,947,128",141829095,153.078382,-27.59978281,WOOD
739,D0784,REBECCA STREET PARK,18278,BBQ,Wood Single,"494,909.55","6,957,910.56",141829095,152.9484618,-27.502451699999998,WOOD
740,D0249,MT COOT-THA RESERVE,10180,BBQ,Wood Single,"494,472.54","6,961,789.03",141829095,152.944055,-27.46743529,WOOD
741,D0319,LAWSON STREET PARK,6838,BBQ,Wood Single,"497,899","6,951,761",141829095,152.9787178,-27.55797729,WOOD
742,D0322,CLIVEDEN AVENUE RESERVE,13522,BBQ,Wood Single,"499,166.02","6,952,516.46",141829095,152.99155269999997,-27.55115847,WOOD
743,D0249,MT COOT-THA RESERVE,26469,BBQ,Wood Single,"494,429.05","6,962,128.28",141829095,152.94361640000002,-27.46437237,WOOD
744,D0324,RIKKI BAILEY PARK,13546,BBQ,Wood Single,"496,742.8","6,951,349.44",141829095,152.9670048,-27.56169052,WOOD
745,D0249,MT COOT-THA RESERVE,10179,BBQ,Wood Single,"495,897.32","6,961,897.5",141829095,152.958476,-27.46646107,WOOD
746,D1472,THE VILLAGE AVENUE PARK,24377,BBQ,Wood Single,"504,185.19","6,950,538.93",141829095,153.04239840000002,-27.56900514,WOOD
747,D0249,MT COOT-THA RESERVE,10174,BBQ,Wood Single,"496,320","6,961,984",141829095,152.9627543,-27.46568136,WOOD
748,D0536,HERBERT STREET PARK,3568,BBQ,Wood Single,"517,501.16","6,961,481.34",141829095,153.17713840000002,-27.47011169,WOOD
749,D0534,COX PARK,3525,BBQ,Wood Single,"518,300.29","6,961,500.09",141829095,153.1852265,-27.46993189,WOOD
750,D0249,MT COOT-THA RESERVE,10176,BBQ,Wood Single,"497,014","6,961,712",141829095,152.9697776,-27.46813868,WOOD
751,D0995,WYNNUM WADING POOL PARK,2378,BBQ,Wood Single,"517,300","6,964,920",141829095,153.1750533,-27.43907015,WOOD
752,D0249,MT COOT-THA RESERVE,10177,BBQ,Wood Single,"496,489.21","6,960,971.82",141829095,152.9644639,-27.47481976,WOOD
753,D0533,LOTA CREEK RESERVE,3508,BBQ,Wood Single,"518,694.1","6,961,279.34",141829095,153.1892158,-27.47191945,WOOD
754,D0249,MT COOT-THA RESERVE,10178,BBQ,Wood Single,"496,941.9","6,961,634.63",141829095,152.9690477,-27.46883701,WOOD
755,D0545,TOOHEY FOREST PARK,34112,BBQ,Wood Single - Wood Barbecue,"504,013.76","6,954,150.98",141829095,153.0406497,-27.53639651,WOOD
756,D0804,BILL BROWN SPORTS RESERVE,37825,BBQ,Wood Single Barbecue,"503,514.68","6,975,917.76",141829095,153.0355323,-27.33988677,WOOD
757,D0249,MT COOT-THA RESERVE,10170,BBQ,Wood single Wood Barbecue on concrete bench,"497,047","6,961,210",141829095,152.9701104,-27.4726708,WOOD
758,D1759,REGENTS CIRCUIT PARK,120447,BBQ,"wood single old style, rusted","495,803.29","6,943,867",141829095,152.9574616,-27.62923808,WOOD
759,D0855,DURELLA STREET PARK,16094,BBQ,Wood Single on bench,"498,224","6,947,981",141829095,152.9820043,-27.59210304,WOOD
760,D0275,DECKER PARK,11805,BBQ,Wood Single on bench,"506,385","6,981,992",141829095,153.06451850000002,-27.285037,WOOD
761,D0275,DECKER PARK,3707,BBQ,Wood Single on bench,"506,395","6,981,955.2",141829095,153.0646198,-27.28536919,WOOD
762,D0765,ENDIANDRA STREET PARK,6034,BBQ,Wood Single on table,"503,298","6,944,860",141829095,153.03342619999998,-27.62027598,WOOD
763,D0911,ANNA SMITH OBE QUOTA PARK,104237,BBQ,woodfired,"510,599.97","6,957,528.11",141829095,153.1073225,-27.50587259,WOOD